{
"type": "FeatureCollection",
"name": "DISD_Campuses",
"crs": { "type": "name", "properties": { "name": "urn:ogc:def:crs:OGC:1.3:CRS84" } },
"features": [
{ "type": "Feature", "properties": { "Name": "Seagoville Middle School", "description": null, "altitudeMode": "clampToGround", "WEBSITE": "<a target=\"_blank\" href=\"http:\/\/www.dallasisd.org\/seagovillems\">http:\/\/www.dallasisd.org\/seagovillems<\/a>", "CITY": "Dallas", "ZIP": "75253", "SCHOOLNAME": "Seagoville Middle School", "TEA": "69", "LEVEL": "Middle", "PHONE": "9728927100", "SLN": "69", "FID": "1", "ADDRESS": "950 Woody Rd.", "Field_1": "Seagoville Middle School" }, "geometry": { "type": "Point", "coordinates": [ -96.583352174338188, 32.681916710094811 ] } },
{ "type": "Feature", "properties": { "Name": "Kennedy-Curry Middle School", "description": null, "altitudeMode": "clampToGround", "WEBSITE": "<a target=\"_blank\" href=\"http:\/\/www.dallasisd.org\/kennedycurry\">http:\/\/www.dallasisd.org\/kennedycurry<\/a>", "CITY": "Dallas", "ZIP": "75241", "SCHOOLNAME": "Kennedy-Curry Middle School", "TEA": "354", "LEVEL": "Middle", "PHONE": "9729251600", "SLN": "354", "FID": "2", "ADDRESS": "6605 Sebring Dr.", "Field_1": "Kennedy-Curry Middle School" }, "geometry": { "type": "Point", "coordinates": [ -96.75787406564379, 32.660962094251587 ] } },
{ "type": "Feature", "properties": { "Name": "Dade Middle School", "description": null, "altitudeMode": "clampToGround", "WEBSITE": "<a target=\"_blank\" href=\"http:\/\/www.dallasisd.org\/dade\">http:\/\/www.dallasisd.org\/dade<\/a>", "CITY": "Dallas", "ZIP": "75215", "SCHOOLNAME": "Dade Middle School", "TEA": "62", "LEVEL": "Middle", "PHONE": "9727493800", "SLN": "62", "FID": "3", "ADDRESS": "2727 Al Lipscomb Way", "Field_1": "Dade Middle School" }, "geometry": { "type": "Point", "coordinates": [ -96.773421077272374, 32.77121801574004 ] } },
{ "type": "Feature", "properties": { "Name": "Lang Sr. Middle School", "description": null, "altitudeMode": "clampToGround", "WEBSITE": "<a target=\"_blank\" href=\"http:\/\/www.dallasisd.org\/lang\">http:\/\/www.dallasisd.org\/lang<\/a>", "CITY": "Dallas", "ZIP": "75228", "SCHOOLNAME": "Lang Sr. Middle School", "TEA": "76", "LEVEL": "Middle", "PHONE": "9729252400", "SLN": "76", "FID": "4", "ADDRESS": "1678 Chenault St.", "Field_1": "Lang Sr. Middle School" }, "geometry": { "type": "Point", "coordinates": [ -96.686805525118672, 32.801768832008257 ] } },
{ "type": "Feature", "properties": { "Name": "Richards STEAM Academy Middle School", "description": null, "altitudeMode": "clampToGround", "WEBSITE": "<a target=\"_blank\" href=\"http:\/\/www.dallasisd.org\/annrichards\">http:\/\/www.dallasisd.org\/annrichards<\/a>", "CITY": "Dallas", "ZIP": "75227", "SCHOOLNAME": "Richards STEAM Academy Middle School", "TEA": "353", "LEVEL": "Middle", "PHONE": "9728925400", "SLN": "353", "FID": "5", "ADDRESS": "3831 N. Prairie Creek Rd.", "Field_1": "Richards STEAM Academy Middle School" }, "geometry": { "type": "Point", "coordinates": [ -96.666303533541182, 32.770027827990617 ] } },
{ "type": "Feature", "properties": { "Name": "Long Middle School", "description": null, "altitudeMode": "clampToGround", "WEBSITE": "<a target=\"_blank\" href=\"http:\/\/www.dallasisd.org\/long\">http:\/\/www.dallasisd.org\/long<\/a>", "CITY": "Dallas", "ZIP": "75214", "SCHOOLNAME": "Long Middle School", "TEA": "53", "LEVEL": "Middle", "PHONE": "9725024700", "SLN": "53", "FID": "6", "ADDRESS": "6116 Reiger Ave.", "Field_1": "Long Middle School" }, "geometry": { "type": "Point", "coordinates": [ -96.750304327662917, 32.806949604745562 ] } },
{ "type": "Feature", "properties": { "Name": "Rusk Middle School", "description": null, "altitudeMode": "clampToGround", "WEBSITE": "<a target=\"_blank\" href=\"http:\/\/www.dallasisd.org\/rusk\">http:\/\/www.dallasisd.org\/rusk<\/a>", "CITY": "Dallas", "ZIP": "75235", "SCHOOLNAME": "Rusk Middle School", "TEA": "55", "LEVEL": "Middle", "PHONE": "9729252000", "SLN": "55", "FID": "7", "ADDRESS": "2929 Inwood Rd.", "Field_1": "Rusk Middle School" }, "geometry": { "type": "Point", "coordinates": [ -96.834879369607677, 32.826723820688002 ] } },
{ "type": "Feature", "properties": { "Name": "Medrano Junior High School", "description": null, "altitudeMode": "clampToGround", "WEBSITE": "<a target=\"_blank\" href=\"http:\/\/www.dallasisd.org\/panchomedrano\">http:\/\/www.dallasisd.org\/panchomedrano<\/a>", "CITY": "Dallas", "ZIP": "75220", "SCHOOLNAME": "Medrano Junior High School", "TEA": "79", "LEVEL": "Middle", "PHONE": "9729251300", "SLN": "79", "FID": "8", "ADDRESS": "9815 Brockbank Dr", "Field_1": "Medrano Junior High School" }, "geometry": { "type": "Point", "coordinates": [ -96.876368902793359, 32.872566985916691 ] } },
{ "type": "Feature", "properties": { "Name": "Garcia Middle School", "description": null, "altitudeMode": "clampToGround", "WEBSITE": "<a target=\"_blank\" href=\"http:\/\/www.dallasisd.org\/garcia\">http:\/\/www.dallasisd.org\/garcia<\/a>", "CITY": "Dallas", "ZIP": "75203", "SCHOOLNAME": "Garcia Middle School", "TEA": "77", "LEVEL": "Middle", "PHONE": "9725025500", "SLN": "77", "FID": "9", "ADDRESS": "700 E. Eighth St.", "Field_1": "Garcia Middle School" }, "geometry": { "type": "Point", "coordinates": [ -96.813893432640711, 32.749861639575137 ] } },
{ "type": "Feature", "properties": { "Name": "San Jacinto Elementary School", "description": null, "altitudeMode": "clampToGround", "WEBSITE": "<a target=\"_blank\" href=\"http:\/\/www.dallasisd.org\/sanjacinto\">http:\/\/www.dallasisd.org\/sanjacinto<\/a>", "CITY": "Dallas", "ZIP": "75227", "SCHOOLNAME": "San Jacinto Elementary School", "TEA": "207", "LEVEL": "Elementary", "PHONE": "9727494200", "SLN": "207", "FID": "190", "ADDRESS": "7900 Hume Dr.", "Field_1": "San Jacinto Elementary School" }, "geometry": { "type": "Point", "coordinates": [ -96.685959413130192, 32.756977089458672 ] } },
{ "type": "Feature", "properties": { "Name": "Bush Elementary School", "description": null, "altitudeMode": "clampToGround", "WEBSITE": "<a target=\"_blank\" href=\"http:\/\/www.dallasisd.org\/georgehwbush\">http:\/\/www.dallasisd.org\/georgehwbush<\/a>", "CITY": "Addison", "ZIP": "75001", "SCHOOLNAME": "Bush Elementary School", "TEA": "304", "LEVEL": "Elementary", "PHONE": "9729251700", "SLN": "304", "FID": "195", "ADDRESS": "3939 Spring Valley Rd.", "Field_1": "Bush Elementary School" }, "geometry": { "type": "Point", "coordinates": [ -96.849832820545799, 32.941832283971657 ] } },
{ "type": "Feature", "properties": { "Name": "Skyline High School", "description": null, "altitudeMode": "clampToGround", "WEBSITE": "<a target=\"_blank\" href=\"http:\/\/www.dallasisd.org\/skyline\">http:\/\/www.dallasisd.org\/skyline<\/a>", "CITY": "Dallas", "ZIP": "75227", "SCHOOLNAME": "Skyline High School", "TEA": "25", "LEVEL": "High", "PHONE": "9725023400", "SLN": "25", "FID": "220", "ADDRESS": "7777 Forney Rd.", "Field_1": "Skyline High School" }, "geometry": { "type": "Point", "coordinates": [ -96.690557414975814, 32.780515191403524 ] } },
{ "type": "Feature", "properties": { "Name": "Obama Male Leadership Academy", "description": null, "altitudeMode": "clampToGround", "WEBSITE": "<a target=\"_blank\" href=\"http:\/\/www.dallasisd.org\/obama\">http:\/\/www.dallasisd.org\/obama<\/a>", "CITY": "Dallas", "ZIP": "75241", "SCHOOLNAME": "Obama Male Leadership Academy", "TEA": "381", "LEVEL": "Magnet", "PHONE": "9727492100", "SLN": "381", "FID": "225", "ADDRESS": "3030 Stag Rd.", "Field_1": "Obama Male Leadership Academy" }, "geometry": { "type": "Point", "coordinates": [ -96.764901665487301, 32.691862404950243 ] } },
{ "type": "Feature", "properties": { "Name": "Judge Barefoot Sanders Magnet Center for Public Service", "description": null, "altitudeMode": "clampToGround", "WEBSITE": "<a target=\"_blank\" href=\"http:\/\/www.dallasisd.org\/lawmagnet\">http:\/\/www.dallasisd.org\/lawmagnet<\/a>", "CITY": "Dallas", "ZIP": "75203", "SCHOOLNAME": "Judge Barefoot Sanders Magnet Center for Public Service", "TEA": "38", "LEVEL": "Magnet", "PHONE": "9729255900", "SLN": "38", "FID": "230", "ADDRESS": "1201 E. Eighth St.", "Field_1": "Judge Barefoot Sanders Magnet Center for Public Service" }, "geometry": { "type": "Point", "coordinates": [ -96.80717838585791, 32.752563658022282 ] } },
{ "type": "Feature", "properties": { "Name": "Johnson Elementary School", "description": null, "altitudeMode": "clampToGround", "WEBSITE": "<a target=\"_blank\" href=\"http:\/\/www.dallasisd.org\/\">http:\/\/www.dallasisd.org\/<\/a>", "CITY": "Wilmer", "ZIP": "75172", "SCHOOLNAME": "Johnson Elementary School", "TEA": "312", "LEVEL": "Elementary", "PHONE": "9729253700", "SLN": "312", "FID": "240", "ADDRESS": "201 S. Goode Rd.", "Field_1": "Johnson Elementary School" }, "geometry": { "type": "Point", "coordinates": [ -96.676486183491576, 32.590789303158253 ] } },
{ "type": "Feature", "properties": { "Name": "Quintanilla Sr. Middle School STEAM Academy", "description": null, "altitudeMode": "clampToGround", "WEBSITE": "<a target=\"_blank\" href=\"http:\/\/www.dallasisd.org\/quintanilla\">http:\/\/www.dallasisd.org\/quintanilla<\/a>", "CITY": "Dallas", "ZIP": "75211", "SCHOOLNAME": "Quintanilla Sr. Middle School STEAM Academy", "TEA": "68", "LEVEL": "Middle", "PHONE": "9725023200", "SLN": "68", "FID": "10", "ADDRESS": "2700 Remond Dr.", "Field_1": "Quintanilla Sr. Middle School STEAM Academy" }, "geometry": { "type": "Point", "coordinates": [ -96.865673904687213, 32.761975723023923 ] } },
{ "type": "Feature", "properties": { "Name": "Stockard Middle School", "description": null, "altitudeMode": "clampToGround", "WEBSITE": "<a target=\"_blank\" href=\"http:\/\/www.dallasisd.org\/stockard\">http:\/\/www.dallasisd.org\/stockard<\/a>", "CITY": "Dallas", "ZIP": "75211", "SCHOOLNAME": "Stockard Middle School", "TEA": "59", "LEVEL": "Middle", "PHONE": "9727945700", "SLN": "59", "FID": "11", "ADDRESS": "2300 S. Ravinia Dr.", "Field_1": "Stockard Middle School" }, "geometry": { "type": "Point", "coordinates": [ -96.867316025511599, 32.722806103936392 ] } },
{ "type": "Feature", "properties": { "Name": "Gaston Middle School", "description": null, "altitudeMode": "clampToGround", "WEBSITE": "<a target=\"_blank\" href=\"http:\/\/www.dallasisd.org\/gaston\">http:\/\/www.dallasisd.org\/gaston<\/a>", "CITY": "Dallas", "ZIP": "75228", "SCHOOLNAME": "Gaston Middle School", "TEA": "48", "LEVEL": "Middle", "PHONE": "9725025400", "SLN": "48", "FID": "12", "ADDRESS": "9565 Mercer Dr.", "Field_1": "Gaston Middle School" }, "geometry": { "type": "Point", "coordinates": [ -96.694093070393222, 32.824774463077972 ] } },
{ "type": "Feature", "properties": { "Name": "Hill Middle School", "description": null, "altitudeMode": "clampToGround", "WEBSITE": "<a target=\"_blank\" href=\"http:\/\/www.dallasisd.org\/hill\">http:\/\/www.dallasisd.org\/hill<\/a>", "CITY": "Dallas", "ZIP": "75218", "SCHOOLNAME": "Hill Middle School", "TEA": "50", "LEVEL": "Middle", "PHONE": "9725025700", "SLN": "50", "FID": "13", "ADDRESS": "505 Easton Rd.", "Field_1": "Hill Middle School" }, "geometry": { "type": "Point", "coordinates": [ -96.704152433499615, 32.8554518759248 ] } },
{ "type": "Feature", "properties": { "Name": "Zumwalt Middle School", "description": null, "altitudeMode": "clampToGround", "WEBSITE": "<a target=\"_blank\" href=\"http:\/\/www.dallasisd.org\/zumwalt\">http:\/\/www.dallasisd.org\/zumwalt<\/a>", "CITY": "Dallas", "ZIP": "75216", "SCHOOLNAME": "Zumwalt Middle School", "TEA": "72", "LEVEL": "Middle", "PHONE": "9727493600", "SLN": "72", "FID": "14", "ADDRESS": "2445 E. Ledbetter Dr.", "Field_1": "Zumwalt Middle School" }, "geometry": { "type": "Point", "coordinates": [ -96.782556902355367, 32.691316201478763 ] } },
{ "type": "Feature", "properties": { "Name": "Browne Middle School", "description": null, "altitudeMode": "clampToGround", "WEBSITE": "<a target=\"_blank\" href=\"http:\/\/www.dallasisd.org\/browne\">http:\/\/www.dallasisd.org\/browne<\/a>", "CITY": "Dallas", "ZIP": "75233", "SCHOOLNAME": "Browne Middle School", "TEA": "43", "LEVEL": "Middle", "PHONE": "9725052500", "SLN": "43", "FID": "15", "ADDRESS": "3333 Sprague Dr.", "Field_1": "Browne Middle School" }, "geometry": { "type": "Point", "coordinates": [ -96.876292634726013, 32.696823837384493 ] } },
{ "type": "Feature", "properties": { "Name": "Holmes Jr. Middle School", "description": null, "altitudeMode": "clampToGround", "WEBSITE": "<a target=\"_blank\" href=\"http:\/\/www.dallasisd.org\/zwholmes\">http:\/\/www.dallasisd.org\/zwholmes<\/a>", "CITY": "Dallas", "ZIP": "75233", "SCHOOLNAME": "Holmes Jr. Middle School", "TEA": "100", "LEVEL": "Middle", "PHONE": "2149327800", "SLN": "100", "FID": "16", "ADDRESS": "2939 St. Rita Dr.", "Field_1": "Holmes Jr. Middle School" }, "geometry": { "type": "Point", "coordinates": [ -96.868491389406984, 32.710954848338353 ] } },
{ "type": "Feature", "properties": { "Name": "Highland Meadows Elementary School", "description": null, "altitudeMode": "clampToGround", "WEBSITE": "<a target=\"_blank\" href=\"http:\/\/www.dallasisd.org\/hmeadows\">http:\/\/www.dallasisd.org\/hmeadows<\/a>", "CITY": "Dallas", "ZIP": "75238", "SCHOOLNAME": "Highland Meadows Elementary School", "TEA": "284", "LEVEL": "Elementary", "PHONE": "9725025200", "SLN": "284", "FID": "17", "ADDRESS": "8939 Whitewing Lane", "Field_1": "Highland Meadows Elementary School" }, "geometry": { "type": "Point", "coordinates": [ -96.687862436257049, 32.870592656360422 ] } },
{ "type": "Feature", "properties": { "Name": "Frank Elementary School", "description": null, "altitudeMode": "clampToGround", "WEBSITE": "<a target=\"_blank\" href=\"http:\/\/www.dallasisd.org\/frank\">http:\/\/www.dallasisd.org\/frank<\/a>", "CITY": "Dallas", "ZIP": "75254", "SCHOOLNAME": "Frank Elementary School", "TEA": "280", "LEVEL": "Elementary", "PHONE": "9725025900", "SLN": "280", "FID": "18", "ADDRESS": "5201 Celestial Rd.", "Field_1": "Frank Elementary School" }, "geometry": { "type": "Point", "coordinates": [ -96.817915804972742, 32.947764283722478 ] } },
{ "type": "Feature", "properties": { "Name": "Kramer Elementary School", "description": null, "altitudeMode": "clampToGround", "WEBSITE": "<a target=\"_blank\" href=\"http:\/\/www.dallasisd.org\/kramer\">http:\/\/www.dallasisd.org\/kramer<\/a>", "CITY": "Dallas", "ZIP": "75230", "SCHOOLNAME": "Kramer Elementary School", "TEA": "169", "LEVEL": "Elementary", "PHONE": "9727948300", "SLN": "169", "FID": "19", "ADDRESS": "7131 Midbury Dr.", "Field_1": "Kramer Elementary School" }, "geometry": { "type": "Point", "coordinates": [ -96.783282480893448, 32.902223719999952 ] } },
{ "type": "Feature", "properties": { "Name": "Kleberg Elementary School", "description": null, "altitudeMode": "clampToGround", "WEBSITE": "<a target=\"_blank\" href=\"http:\/\/www.dallasisd.org\/kleberg\">http:\/\/www.dallasisd.org\/kleberg<\/a>", "CITY": "Dallas", "ZIP": "75253", "SCHOOLNAME": "Kleberg Elementary School", "TEA": "167", "LEVEL": "Elementary", "PHONE": "9727496500", "SLN": "167", "FID": "20", "ADDRESS": "1450 Edd Rd.", "Field_1": "Kleberg Elementary School" }, "geometry": { "type": "Point", "coordinates": [ -96.600499834557766, 32.684349658661432 ] } },
{ "type": "Feature", "properties": { "Name": "Moseley Elementary School", "description": null, "altitudeMode": "clampToGround", "WEBSITE": "<a target=\"_blank\" href=\"http:\/\/www.dallasisd.org\/moseley\">http:\/\/www.dallasisd.org\/moseley<\/a>", "CITY": "Dallas", "ZIP": "75217", "SCHOOLNAME": "Moseley Elementary School", "TEA": "187", "LEVEL": "Elementary", "PHONE": "9727496700", "SLN": "187", "FID": "21", "ADDRESS": "10400 Rylie Rd.", "Field_1": "Moseley Elementary School" }, "geometry": { "type": "Point", "coordinates": [ -96.64235477764457, 32.689361805596903 ] } },
{ "type": "Feature", "properties": { "Name": "Halliday Elementary School", "description": null, "altitudeMode": "clampToGround", "WEBSITE": "<a target=\"_blank\" href=\"http:\/\/www.dallasisd.org\/ebbyhalliday\">http:\/\/www.dallasisd.org\/ebbyhalliday<\/a>", "CITY": "Dallas", "ZIP": "75217", "SCHOOLNAME": "Halliday Elementary School", "TEA": "305", "LEVEL": "Elementary", "PHONE": "9729251800", "SLN": "305", "FID": "22", "ADDRESS": "10210 Teagarden Rd.", "Field_1": "Halliday Elementary School" }, "geometry": { "type": "Point", "coordinates": [ -96.647010774896302, 32.672699809137001 ] } },
{ "type": "Feature", "properties": { "Name": "Ervin Elementary School", "description": null, "altitudeMode": "clampToGround", "WEBSITE": "<a target=\"_blank\" href=\"http:\/\/www.dallasisd.org\/ervin\">http:\/\/www.dallasisd.org\/ervin<\/a>", "CITY": "Dallas", "ZIP": "75241", "SCHOOLNAME": "Ervin Elementary School", "TEA": "142", "LEVEL": "Elementary", "PHONE": "9727493700", "SLN": "142", "FID": "23", "ADDRESS": "3722 Black Oak Dr.", "Field_1": "Ervin Elementary School" }, "geometry": { "type": "Point", "coordinates": [ -96.762233053582534, 32.679646854286268 ] } },
{ "type": "Feature", "properties": { "Name": "Wilmer-Hutchins Elementary School", "description": null, "altitudeMode": "clampToGround", "WEBSITE": "<a target=\"_blank\" href=\"http:\/\/www.dallasisd.org\/wilmerhutchinses\">http:\/\/www.dallasisd.org\/wilmerhutchinses<\/a>", "CITY": "Dallas", "ZIP": "75241", "SCHOOLNAME": "Wilmer-Hutchins Elementary School", "TEA": "301", "LEVEL": "Elementary", "PHONE": "9729252600", "SLN": "301", "FID": "24", "ADDRESS": "7475 J.J. Lemmon Rd.", "Field_1": "Wilmer-Hutchins Elementary School" }, "geometry": { "type": "Point", "coordinates": [ -96.727702776937335, 32.65419447589904 ] } },
{ "type": "Feature", "properties": { "Name": "Alexander Elementary School", "description": null, "altitudeMode": "clampToGround", "WEBSITE": "<a target=\"_blank\" href=\"http:\/\/www.dallasisd.org\/alexander\">http:\/\/www.dallasisd.org\/alexander<\/a>", "CITY": "Dallas", "ZIP": "75232", "SCHOOLNAME": "Alexander Elementary School", "TEA": "235", "LEVEL": "Elementary", "PHONE": "9727493100", "SLN": "235", "FID": "25", "ADDRESS": "1830 Goldwood Dr.", "Field_1": "Alexander Elementary School" }, "geometry": { "type": "Point", "coordinates": [ -96.847650969356067, 32.65601499530505 ] } },
{ "type": "Feature", "properties": { "Name": "U. Lee Elementary School", "description": null, "altitudeMode": "clampToGround", "WEBSITE": "<a target=\"_blank\" href=\"http:\/\/www.dallasisd.org\/ulee\">http:\/\/www.dallasisd.org\/ulee<\/a>", "CITY": "Dallas", "ZIP": "75232", "SCHOOLNAME": "U. Lee Elementary School", "TEA": "175", "LEVEL": "Elementary", "PHONE": "9727493900", "SLN": "175", "FID": "26", "ADDRESS": "7808 Racine Dr.", "Field_1": "U. Lee Elementary School" }, "geometry": { "type": "Point", "coordinates": [ -96.835474093657709, 32.652778074007081 ] } },
{ "type": "Feature", "properties": { "Name": "McNair Elementary School", "description": null, "altitudeMode": "clampToGround", "WEBSITE": "<a target=\"_blank\" href=\"http:\/\/www.dallasisd.org\/mcnair\">http:\/\/www.dallasisd.org\/mcnair<\/a>", "CITY": "Dallas", "ZIP": "75237", "SCHOOLNAME": "McNair Elementary School", "TEA": "264", "LEVEL": "Elementary", "PHONE": "9727946200", "SLN": "264", "FID": "27", "ADDRESS": "3150 Bainbridge Ave.", "Field_1": "McNair Elementary School" }, "geometry": { "type": "Point", "coordinates": [ -96.863278323639378, 32.656185126676178 ] } },
{ "type": "Feature", "properties": { "Name": "Weiss Elementary School", "description": null, "altitudeMode": "clampToGround", "WEBSITE": "<a target=\"_blank\" href=\"http:\/\/www.dallasisd.org\/weiss\">http:\/\/www.dallasisd.org\/weiss<\/a>", "CITY": "Dallas", "ZIP": "75232", "SCHOOLNAME": "Weiss Elementary School", "TEA": "226", "LEVEL": "Elementary", "PHONE": "9727494000", "SLN": "226", "FID": "28", "ADDRESS": "8601 Willoughby Blvd.", "Field_1": "Weiss Elementary School" }, "geometry": { "type": "Point", "coordinates": [ -96.830476916217606, 32.643833703868559 ] } },
{ "type": "Feature", "properties": { "Name": "Blair Elementary School", "description": null, "altitudeMode": "clampToGround", "WEBSITE": "<a target=\"_blank\" href=\"http:\/\/www.dallasisd.org\/blair\">http:\/\/www.dallasisd.org\/blair<\/a>", "CITY": "Dallas", "ZIP": "75217", "SCHOOLNAME": "Blair Elementary School", "TEA": "109", "LEVEL": "Elementary", "PHONE": "9727941600", "SLN": "109", "FID": "29", "ADDRESS": "7720 Gayglen Dr.", "Field_1": "Blair Elementary School" }, "geometry": { "type": "Point", "coordinates": [ -96.688728452555566, 32.708755218562878 ] } },
{ "type": "Feature", "properties": { "Name": "Burleson Elementary School", "description": null, "altitudeMode": "clampToGround", "WEBSITE": "<a target=\"_blank\" href=\"http:\/\/www.dallasisd.org\/burleson\">http:\/\/www.dallasisd.org\/burleson<\/a>", "CITY": "Dallas", "ZIP": "75217", "SCHOOLNAME": "Burleson Elementary School", "TEA": "117", "LEVEL": "Elementary", "PHONE": "9727494500", "SLN": "117", "FID": "30", "ADDRESS": "6300 Elam Rd.", "Field_1": "Burleson Elementary School" }, "geometry": { "type": "Point", "coordinates": [ -96.71318038624797, 32.718729132670582 ] } },
{ "type": "Feature", "properties": { "Name": "Douglass Elementary School", "description": null, "altitudeMode": "clampToGround", "WEBSITE": "<a target=\"_blank\" href=\"http:\/\/www.dallasisd.org\/douglas\">http:\/\/www.dallasisd.org\/douglas<\/a>", "CITY": "Dallas", "ZIP": "75217", "SCHOOLNAME": "Douglass Elementary School", "TEA": "266", "LEVEL": "Elementary", "PHONE": "9727941400", "SLN": "266", "FID": "31", "ADDRESS": "226 N. Jim Miller Rd.", "Field_1": "Douglass Elementary School" }, "geometry": { "type": "Point", "coordinates": [ -96.697507634084459, 32.715612728586713 ] } },
{ "type": "Feature", "properties": { "Name": "Bayles Elementary School", "description": null, "altitudeMode": "clampToGround", "WEBSITE": "<a target=\"_blank\" href=\"http:\/\/www.dallasisd.org\/bayles\">http:\/\/www.dallasisd.org\/bayles<\/a>", "CITY": "Dallas", "ZIP": "75228", "SCHOOLNAME": "Bayles Elementary School", "TEA": "108", "LEVEL": "Elementary", "PHONE": "9727498900", "SLN": "108", "FID": "32", "ADDRESS": "2444 Telegraph Ave.", "Field_1": "Bayles Elementary School" }, "geometry": { "type": "Point", "coordinates": [ -96.706060878611069, 32.801074849298551 ] } },
{ "type": "Feature", "properties": { "Name": "Conner Elementary School", "description": null, "altitudeMode": "clampToGround", "WEBSITE": "<a target=\"_blank\" href=\"http:\/\/www.dallasisd.org\/conner\">http:\/\/www.dallasisd.org\/conner<\/a>", "CITY": "Dallas", "ZIP": "75228", "SCHOOLNAME": "Conner Elementary School", "TEA": "129", "LEVEL": "Elementary", "PHONE": "9727498200", "SLN": "129", "FID": "33", "ADDRESS": "3037 Greenmeadow Dr.", "Field_1": "Conner Elementary School" }, "geometry": { "type": "Point", "coordinates": [ -96.694758479587293, 32.808248676660462 ] } },
{ "type": "Feature", "properties": { "Name": "Truett Elementary School", "description": null, "altitudeMode": "clampToGround", "WEBSITE": "<a target=\"_blank\" href=\"http:\/\/www.dallasisd.org\/truett\">http:\/\/www.dallasisd.org\/truett<\/a>", "CITY": "Dallas", "ZIP": "75228", "SCHOOLNAME": "Truett Elementary School", "TEA": "218", "LEVEL": "Elementary", "PHONE": "9727498000", "SLN": "218", "FID": "34", "ADDRESS": "1811 Gross Rd.", "Field_1": "Truett Elementary School" }, "geometry": { "type": "Point", "coordinates": [ -96.683498521307513, 32.816434870715398 ] } },
{ "type": "Feature", "properties": { "Name": "Titche Elementary School", "description": null, "altitudeMode": "clampToGround", "WEBSITE": "<a target=\"_blank\" href=\"http:\/\/www.dallasisd.org\/titche\">http:\/\/www.dallasisd.org\/titche<\/a>", "CITY": "Dallas", "ZIP": "75227", "SCHOOLNAME": "Titche Elementary School", "TEA": "216", "LEVEL": "Elementary", "PHONE": "9727942100", "SLN": "216", "FID": "35", "ADDRESS": "9560 Highfield Dr.", "Field_1": "Titche Elementary School" }, "geometry": { "type": "Point", "coordinates": [ -96.658564517341503, 32.754768192512813 ] } },
{ "type": "Feature", "properties": { "Name": "Dunbar Learning Center", "description": null, "altitudeMode": "clampToGround", "WEBSITE": "<a target=\"_blank\" href=\"http:\/\/www.dallasisd.org\/dunbar\">http:\/\/www.dallasisd.org\/dunbar<\/a>", "CITY": "Dallas", "ZIP": "75210", "SCHOOLNAME": "Dunbar Learning Center", "TEA": "139", "LEVEL": "Elementary", "PHONE": "9727946600", "SLN": "139", "FID": "36", "ADDRESS": "4200 Metropolitan Ave.", "Field_1": "Dunbar Learning Center" }, "geometry": { "type": "Point", "coordinates": [ -96.749208724310719, 32.774833004158488 ] } },
{ "type": "Feature", "properties": { "Name": "Guzick Elementary School", "description": null, "altitudeMode": "clampToGround", "WEBSITE": "<a target=\"_blank\" href=\"http:\/\/www.dallasisd.org\/guzick\">http:\/\/www.dallasisd.org\/guzick<\/a>", "CITY": "Dallas", "ZIP": "75227", "SCHOOLNAME": "Guzick Elementary School", "TEA": "240", "LEVEL": "Elementary", "PHONE": "9725023900", "SLN": "240", "FID": "37", "ADDRESS": "5000 Berridge Ln", "Field_1": "Guzick Elementary School" }, "geometry": { "type": "Point", "coordinates": [ -96.69274288487297, 32.784731383210122 ] } },
{ "type": "Feature", "properties": { "Name": "King Jr. Arts Academy", "description": null, "altitudeMode": "clampToGround", "WEBSITE": "<a target=\"_blank\" href=\"http:\/\/www.dallasisd.org\/mlk\">http:\/\/www.dallasisd.org\/mlk<\/a>", "CITY": "Dallas", "ZIP": "75215", "SCHOOLNAME": "King Jr. Arts Academy", "TEA": "128", "LEVEL": "Choice", "PHONE": "9725028100", "SLN": "128", "FID": "38", "ADDRESS": "1817 Warren Ave.", "Field_1": "King Jr. Arts Academy" }, "geometry": { "type": "Point", "coordinates": [ -96.773504679372991, 32.761011441798473 ] } },
{ "type": "Feature", "properties": { "Name": "Rhoads Learning Center", "description": null, "altitudeMode": "clampToGround", "WEBSITE": "<a target=\"_blank\" href=\"http:\/\/www.dallasisd.org\/rhoads\">http:\/\/www.dallasisd.org\/rhoads<\/a>", "CITY": "Dallas", "ZIP": "75210", "SCHOOLNAME": "Rhoads Learning Center", "TEA": "200", "LEVEL": "Elementary", "PHONE": "9727491000", "SLN": "200", "FID": "39", "ADDRESS": "4401 Second Ave.", "Field_1": "Rhoads Learning Center" }, "geometry": { "type": "Point", "coordinates": [ -96.748735245927875, 32.763426635159007 ] } },
{ "type": "Feature", "properties": { "Name": "Rice Learning Center", "description": null, "altitudeMode": "clampToGround", "WEBSITE": "<a target=\"_blank\" href=\"http:\/\/www.dallasisd.org\/rice\">http:\/\/www.dallasisd.org\/rice<\/a>", "CITY": "Dallas", "ZIP": "75215", "SCHOOLNAME": "Rice Learning Center", "TEA": "201", "LEVEL": "Elementary", "PHONE": "9727491100", "SLN": "201", "FID": "40", "ADDRESS": "2425 Pine St.", "Field_1": "Rice Learning Center" }, "geometry": { "type": "Point", "coordinates": [ -96.762132617340242, 32.75649510014744 ] } },
{ "type": "Feature", "properties": { "Name": "Rowe Elementary School", "description": null, "altitudeMode": "clampToGround", "WEBSITE": "<a target=\"_blank\" href=\"http:\/\/www.dallasisd.org\/rowe\">http:\/\/www.dallasisd.org\/rowe<\/a>", "CITY": "Dallas", "ZIP": "75227", "SCHOOLNAME": "Rowe Elementary School", "TEA": "232", "LEVEL": "Elementary", "PHONE": "9727498000", "SLN": "232", "FID": "41", "ADDRESS": "4918 Hovenkamp Dr.", "Field_1": "Rowe Elementary School" }, "geometry": { "type": "Point", "coordinates": [ -96.70674367853421, 32.785442530937033 ] } },
{ "type": "Feature", "properties": { "Name": "Silberstein Elementary School", "description": null, "altitudeMode": "clampToGround", "WEBSITE": "<a target=\"_blank\" href=\"http:\/\/www.dallasisd.org\/silberstein\">http:\/\/www.dallasisd.org\/silberstein<\/a>", "CITY": "Dallas", "ZIP": "75227", "SCHOOLNAME": "Silberstein Elementary School", "TEA": "209", "LEVEL": "Elementary", "PHONE": "9727941900", "SLN": "209", "FID": "42", "ADDRESS": "5940 Hollis Ave.", "Field_1": "Silberstein Elementary School" }, "geometry": { "type": "Point", "coordinates": [ -96.720535749489571, 32.767210450395012 ] } },
{ "type": "Feature", "properties": { "Name": "Tatum Jr. Elementary School", "description": null, "altitudeMode": "clampToGround", "WEBSITE": "<a target=\"_blank\" href=\"http:\/\/www.dallasisd.org\/tatum\">http:\/\/www.dallasisd.org\/tatum<\/a>", "CITY": "Dallas", "ZIP": "75227", "SCHOOLNAME": "Tatum Jr. Elementary School", "TEA": "155", "LEVEL": "Elementary", "PHONE": "9725022000", "SLN": "155", "FID": "43", "ADDRESS": "3002 N. St. Augustine Rd.", "Field_1": "Tatum Jr. Elementary School" }, "geometry": { "type": "Point", "coordinates": [ -96.655543818858604, 32.763378740537462 ] } },
{ "type": "Feature", "properties": { "Name": "Callejo Elementary School", "description": null, "altitudeMode": "clampToGround", "WEBSITE": "<a target=\"_blank\" href=\"http:\/\/www.dallasisd.org\/callejo\">http:\/\/www.dallasisd.org\/callejo<\/a>", "CITY": "Dallas", "ZIP": "75227", "SCHOOLNAME": "Callejo Elementary School", "TEA": "247", "LEVEL": "Elementary", "PHONE": "9728925700", "SLN": "247", "FID": "44", "ADDRESS": "7817 Military Pkwy", "Field_1": "Callejo Elementary School" }, "geometry": { "type": "Point", "coordinates": [ -96.686676102544141, 32.771403277621992 ] } },
{ "type": "Feature", "properties": { "Name": "Geneva Heights Elementary School", "description": null, "altitudeMode": "clampToGround", "WEBSITE": "<a target=\"_blank\" href=\"http:\/\/www.dallasisd.org\/genevaheights\">http:\/\/www.dallasisd.org\/genevaheights<\/a>", "CITY": "Dallas", "ZIP": "75206", "SCHOOLNAME": "Geneva Heights Elementary School", "TEA": "174", "LEVEL": "Elementary", "PHONE": "9727497400", "SLN": "174", "FID": "46", "ADDRESS": "2911 Delmar Ave.", "Field_1": "Geneva Heights Elementary School" }, "geometry": { "type": "Point", "coordinates": [ -96.76637297416724, 32.824167128281303 ] } },
{ "type": "Feature", "properties": { "Name": "Lipscomb Elementary School", "description": null, "altitudeMode": "clampToGround", "WEBSITE": "<a target=\"_blank\" href=\"http:\/\/www.dallasisd.org\/lipscomb\">http:\/\/www.dallasisd.org\/lipscomb<\/a>", "CITY": "Dallas", "ZIP": "75214", "SCHOOLNAME": "Lipscomb Elementary School", "TEA": "177", "LEVEL": "Elementary", "PHONE": "9727947300", "SLN": "177", "FID": "47", "ADDRESS": "5801 Worth St.", "Field_1": "Lipscomb Elementary School" }, "geometry": { "type": "Point", "coordinates": [ -96.757029825130886, 32.807167470950908 ] } },
{ "type": "Feature", "properties": { "Name": "Milam Elementary School", "description": null, "altitudeMode": "clampToGround", "WEBSITE": "<a target=\"_blank\" href=\"http:\/\/www.dallasisd.org\/milam\">http:\/\/www.dallasisd.org\/milam<\/a>", "CITY": "Dallas", "ZIP": "75205", "SCHOOLNAME": "Milam Elementary School", "TEA": "184", "LEVEL": "Elementary", "PHONE": "9727495600", "SLN": "184", "FID": "48", "ADDRESS": "4200 McKinney Ave.", "Field_1": "Milam Elementary School" }, "geometry": { "type": "Point", "coordinates": [ -96.790157574928642, 32.816381884324151 ] } },
{ "type": "Feature", "properties": { "Name": "Rogers Elementary School", "description": null, "altitudeMode": "clampToGround", "WEBSITE": "<a target=\"_blank\" href=\"http:\/\/www.dallasisd.org\/rogers\">http:\/\/www.dallasisd.org\/rogers<\/a>", "CITY": "Dallas", "ZIP": "75214", "SCHOOLNAME": "Rogers Elementary School", "TEA": "203", "LEVEL": "Elementary", "PHONE": "9727948800", "SLN": "203", "FID": "49", "ADDRESS": "5314 Abrams Rd.", "Field_1": "Rogers Elementary School" }, "geometry": { "type": "Point", "coordinates": [ -96.751704681919378, 32.852058311141292 ] } },
{ "type": "Feature", "properties": { "Name": "Chavez Learning Center", "description": null, "altitudeMode": "clampToGround", "WEBSITE": "<a target=\"_blank\" href=\"http:\/\/www.dallasisd.org\/chavez\">http:\/\/www.dallasisd.org\/chavez<\/a>", "CITY": "Dallas", "ZIP": "75204", "SCHOOLNAME": "Chavez Learning Center", "TEA": "281", "LEVEL": "Elementary", "PHONE": "9729251000", "SLN": "281", "FID": "51", "ADDRESS": "1710 N. Carroll", "Field_1": "Chavez Learning Center" }, "geometry": { "type": "Point", "coordinates": [ -96.780571916285723, 32.803729899682693 ] } },
{ "type": "Feature", "properties": { "Name": "Foster Elementary School", "description": null, "altitudeMode": "clampToGround", "WEBSITE": "<a target=\"_blank\" href=\"http:\/\/www.dallasisd.org\/foster\">http:\/\/www.dallasisd.org\/foster<\/a>", "CITY": "Dallas", "ZIP": "75220", "SCHOOLNAME": "Foster Elementary School", "TEA": "145", "LEVEL": "Elementary", "PHONE": "9727948100", "SLN": "145", "FID": "52", "ADDRESS": "3700 Clover Lane", "Field_1": "Foster Elementary School" }, "geometry": { "type": "Point", "coordinates": [ -96.853772701618098, 32.869975585909202 ] } },
{ "type": "Feature", "properties": { "Name": "Montessori Academy at Hernandez Elementary School", "description": null, "altitudeMode": "clampToGround", "WEBSITE": "<a target=\"_blank\" href=\"http:\/\/www.dallasisd.org\/hernandez\">http:\/\/www.dallasisd.org\/hernandez<\/a>", "CITY": "Dallas", "ZIP": "75235", "SCHOOLNAME": "Montessori Academy at Hernandez Elementary School", "TEA": "385", "LEVEL": "Magnet", "PHONE": "9729252700", "SLN": "385", "FID": "53", "ADDRESS": "5555 Maple Ave.", "Field_1": "Montessori Academy at Hernandez Elementary School" }, "geometry": { "type": "Point", "coordinates": [ -96.836424197920891, 32.819675600245112 ] } },
{ "type": "Feature", "properties": { "Name": "Personalized Learning Preparatory School at Sam Houston ES", "description": null, "altitudeMode": "clampToGround", "WEBSITE": "<a target=\"_blank\" href=\"http:\/\/www.dallasisd.org\/houston\">http:\/\/www.dallasisd.org\/houston<\/a>", "CITY": "Dallas", "ZIP": "75219", "SCHOOLNAME": "Personalized Learning Preparatory School at Sam Houston ES", "TEA": "160", "LEVEL": "Choice", "PHONE": "9727495800", "SLN": "160", "FID": "54", "ADDRESS": "2827 Throckmorton", "Field_1": "Personalized Learning Preparatory School at Sam Houston ES" }, "geometry": { "type": "Point", "coordinates": [ -96.813355473192516, 32.810138766718332 ] } },
{ "type": "Feature", "properties": { "Name": "Knight Elementary School", "description": null, "altitudeMode": "clampToGround", "WEBSITE": "<a target=\"_blank\" href=\"http:\/\/www.dallasisd.org\/knight\">http:\/\/www.dallasisd.org\/knight<\/a>", "CITY": "Dallas", "ZIP": "75235", "SCHOOLNAME": "Knight Elementary School", "TEA": "168", "LEVEL": "Elementary", "PHONE": "9727495300", "SLN": "168", "FID": "56", "ADDRESS": "2615 Anson Rd.", "Field_1": "Knight Elementary School" }, "geometry": { "type": "Point", "coordinates": [ -96.851825449992575, 32.836870357263322 ] } },
{ "type": "Feature", "properties": { "Name": "Maple Lawn Elementary School", "description": null, "altitudeMode": "clampToGround", "WEBSITE": "<a target=\"_blank\" href=\"http:\/\/www.dallasisd.org\/maplelawn\">http:\/\/www.dallasisd.org\/maplelawn<\/a>", "CITY": "Dallas", "ZIP": "75235", "SCHOOLNAME": "Maple Lawn Elementary School", "TEA": "181", "LEVEL": "Elementary", "PHONE": "9729252500", "SLN": "181", "FID": "57", "ADDRESS": "3120 Inwood Rd.", "Field_1": "Maple Lawn Elementary School" }, "geometry": { "type": "Point", "coordinates": [ -96.829864568430636, 32.825890015546662 ] } },
{ "type": "Feature", "properties": { "Name": "Medrano Elementary School", "description": null, "altitudeMode": "clampToGround", "WEBSITE": "<a target=\"_blank\" href=\"http:\/\/www.dallasisd.org\/hopemedrano\">http:\/\/www.dallasisd.org\/hopemedrano<\/a>", "CITY": "Dallas", "ZIP": "75219", "SCHOOLNAME": "Medrano Elementary School", "TEA": "283", "LEVEL": "Elementary", "PHONE": "9727943300", "SLN": "283", "FID": "58", "ADDRESS": "2221 Lucas Dr.", "Field_1": "Medrano Elementary School" }, "geometry": { "type": "Point", "coordinates": [ -96.82714429655482, 32.808638593664703 ] } },
{ "type": "Feature", "properties": { "Name": "Mount Auburn STEAM Academy Elementary School", "description": null, "altitudeMode": "clampToGround", "WEBSITE": "<a target=\"_blank\" href=\"http:\/\/www.dallasisd.org\/mountauburn\">http:\/\/www.dallasisd.org\/mountauburn<\/a>", "CITY": "Dallas", "ZIP": "75223", "SCHOOLNAME": "Mount Auburn STEAM Academy Elementary School", "TEA": "188", "LEVEL": "Elementary", "PHONE": "9727498500", "SLN": "188", "FID": "59", "ADDRESS": "6012 E. Grand Ave.", "Field_1": "Mount Auburn STEAM Academy Elementary School" }, "geometry": { "type": "Point", "coordinates": [ -96.744034528296922, 32.795836162703807 ] } },
{ "type": "Feature", "properties": { "Name": "Roberts Elementary School", "description": null, "altitudeMode": "clampToGround", "WEBSITE": "<a target=\"_blank\" href=\"http:\/\/www.dallasisd.org\/oranroberts\">http:\/\/www.dallasisd.org\/oranroberts<\/a>", "CITY": "Dallas", "ZIP": "75223", "SCHOOLNAME": "Roberts Elementary School", "TEA": "202", "LEVEL": "Elementary", "PHONE": "9727498700", "SLN": "202", "FID": "60", "ADDRESS": "4919 E. Grand Ave.", "Field_1": "Roberts Elementary School" }, "geometry": { "type": "Point", "coordinates": [ -96.754218149826002, 32.788501443164407 ] } },
{ "type": "Feature", "properties": { "Name": "Zaragoza Elementary School", "description": null, "altitudeMode": "clampToGround", "WEBSITE": "<a target=\"_blank\" href=\"http:\/\/www.dallasisd.org\/zaragoza\">http:\/\/www.dallasisd.org\/zaragoza<\/a>", "CITY": "Dallas", "ZIP": "75246", "SCHOOLNAME": "Zaragoza Elementary School", "TEA": "131", "LEVEL": "Elementary", "PHONE": "9727498600", "SLN": "131", "FID": "61", "ADDRESS": "4550 Worth St.", "Field_1": "Zaragoza Elementary School" }, "geometry": { "type": "Point", "coordinates": [ -96.770873692585042, 32.795159979736709 ] } },
{ "type": "Feature", "properties": { "Name": "Carr Elementary School", "description": null, "altitudeMode": "clampToGround", "WEBSITE": "<a target=\"_blank\" href=\"http:\/\/www.dallasisd.org\/carr\">http:\/\/www.dallasisd.org\/carr<\/a>", "CITY": "Dallas", "ZIP": "75212", "SCHOOLNAME": "Carr Elementary School", "TEA": "122", "LEVEL": "Elementary", "PHONE": "9727944300", "SLN": "122", "FID": "62", "ADDRESS": "1952 Bayside St.", "Field_1": "Carr Elementary School" }, "geometry": { "type": "Point", "coordinates": [ -96.852744119266305, 32.787881432724888 ] } },
{ "type": "Feature", "properties": { "Name": "De Zavala Elementary School", "description": null, "altitudeMode": "clampToGround", "WEBSITE": "<a target=\"_blank\" href=\"http:\/\/www.dallasisd.org\/dezavala\">http:\/\/www.dallasisd.org\/dezavala<\/a>", "CITY": "Dallas", "ZIP": "75212", "SCHOOLNAME": "De Zavala Elementary School", "TEA": "260", "LEVEL": "Elementary", "PHONE": "9728926400", "SLN": "260", "FID": "63", "ADDRESS": "3214 N. Winnetka Ave.", "Field_1": "De Zavala Elementary School" }, "geometry": { "type": "Point", "coordinates": [ -96.839057904336741, 32.781108762928241 ] } },
{ "type": "Feature", "properties": { "Name": "Arcadia Park Elementary School", "description": null, "altitudeMode": "clampToGround", "WEBSITE": "<a target=\"_blank\" href=\"http:\/\/www.dallasisd.org\/arcadiapark\">http:\/\/www.dallasisd.org\/arcadiapark<\/a>", "CITY": "Dallas", "ZIP": "75211", "SCHOOLNAME": "Arcadia Park Elementary School", "TEA": "105", "LEVEL": "Elementary", "PHONE": "9725025300", "SLN": "105", "FID": "64", "ADDRESS": "1300 N. Justin Ave.", "Field_1": "Arcadia Park Elementary School" }, "geometry": { "type": "Point", "coordinates": [ -96.910537504811913, 32.759403669798061 ] } },
{ "type": "Feature", "properties": { "Name": "Allen Charter School", "description": null, "altitudeMode": "clampToGround", "WEBSITE": "<a target=\"_blank\" href=\"http:\/\/www.dallasisd.org\/allen\">http:\/\/www.dallasisd.org\/allen<\/a>", "CITY": "Dallas", "ZIP": "75212", "SCHOOLNAME": "Allen Charter School", "TEA": "103", "LEVEL": "Elementary", "PHONE": "9727945100", "SLN": "103", "FID": "65", "ADDRESS": "5220 Nomas St.", "Field_1": "Allen Charter School" }, "geometry": { "type": "Point", "coordinates": [ -96.907566941655716, 32.781518711588802 ] } },
{ "type": "Feature", "properties": { "Name": "Burnet Elementary School", "description": null, "altitudeMode": "clampToGround", "WEBSITE": "<a target=\"_blank\" href=\"http:\/\/www.dallasisd.org\/burnet\">http:\/\/www.dallasisd.org\/burnet<\/a>", "CITY": "Dallas", "ZIP": "75220", "SCHOOLNAME": "Burnet Elementary School", "TEA": "116", "LEVEL": "Elementary", "PHONE": "9727943000", "SLN": "116", "FID": "66", "ADDRESS": "3200 Kinkaid Dr.", "Field_1": "Burnet Elementary School" }, "geometry": { "type": "Point", "coordinates": [ -96.868425236741245, 32.876453537630702 ] } },
{ "type": "Feature", "properties": { "Name": "Cigarroa Elementary School", "description": null, "altitudeMode": "clampToGround", "WEBSITE": "<a target=\"_blank\" href=\"http:\/\/www.dallasisd.org\/cigarroa\">http:\/\/www.dallasisd.org\/cigarroa<\/a>", "CITY": "Dallas", "ZIP": "75220", "SCHOOLNAME": "Cigarroa Elementary School", "TEA": "278", "LEVEL": "Elementary", "PHONE": "9725022900", "SLN": "278", "FID": "67", "ADDRESS": "9990 Webb Chapel Rd", "Field_1": "Cigarroa Elementary School" }, "geometry": { "type": "Point", "coordinates": [ -96.864756336986986, 32.880031892677593 ] } },
{ "type": "Feature", "properties": { "Name": "Dallas Environmental Science Academy", "description": null, "altitudeMode": "clampToGround", "WEBSITE": "<a target=\"_blank\" href=\"http:\/\/www.dallasisd.org\/desa\">http:\/\/www.dallasisd.org\/desa<\/a>", "CITY": "Dallas", "ZIP": "75212", "SCHOOLNAME": "Dallas Environmental Science Academy", "TEA": "71", "LEVEL": "Magnet", "PHONE": "9727943950", "SLN": "71", "FID": "68", "ADDRESS": "3531 N. Westmoreland Rd.", "Field_1": "Dallas Environmental Science Academy" }, "geometry": { "type": "Point", "coordinates": [ -96.875389461066632, 32.785051010155037 ] } },
{ "type": "Feature", "properties": { "Name": "Martinez Learning Center", "description": null, "altitudeMode": "clampToGround", "WEBSITE": "<a target=\"_blank\" href=\"http:\/\/www.dallasisd.org\/martinez\">http:\/\/www.dallasisd.org\/martinez<\/a>", "CITY": "Dallas", "ZIP": "75212", "SCHOOLNAME": "Martinez Learning Center", "TEA": "265", "LEVEL": "Elementary", "PHONE": "9727946900", "SLN": "265", "FID": "69", "ADDRESS": "4500 Bernal Dr.", "Field_1": "Martinez Learning Center" }, "geometry": { "type": "Point", "coordinates": [ -96.893702455676646, 32.786786445584667 ] } },
{ "type": "Feature", "properties": { "Name": "Saldivar Elementary School", "description": null, "altitudeMode": "clampToGround", "WEBSITE": "<a target=\"_blank\" href=\"http:\/\/www.dallasisd.org\/saldivar\">http:\/\/www.dallasisd.org\/saldivar<\/a>", "CITY": "Dallas", "ZIP": "75220", "SCHOOLNAME": "Saldivar Elementary School", "TEA": "271", "LEVEL": "Elementary", "PHONE": "9727942000", "SLN": "271", "FID": "70", "ADDRESS": "9510 Brockbank Dr.", "Field_1": "Saldivar Elementary School" }, "geometry": { "type": "Point", "coordinates": [ -96.87281892743755, 32.86477442966838 ] } },
{ "type": "Feature", "properties": { "Name": "Moreno STEAM Academy", "description": null, "altitudeMode": "clampToGround", "WEBSITE": "<a target=\"_blank\" href=\"http:\/\/www.dallasisd.org\/moreno\">http:\/\/www.dallasisd.org\/moreno<\/a>", "CITY": "Dallas", "ZIP": "75224", "SCHOOLNAME": "Moreno STEAM Academy", "TEA": "272", "LEVEL": "Elementary", "PHONE": "9725023100", "SLN": "272", "FID": "71", "ADDRESS": "2115 S. Hampton Rd.", "Field_1": "Moreno STEAM Academy" }, "geometry": { "type": "Point", "coordinates": [ -96.85811279752977, 32.723970376599553 ] } },
{ "type": "Feature", "properties": { "Name": "Botello Personalized Learning Academy", "description": null, "altitudeMode": "clampToGround", "WEBSITE": "<a target=\"_blank\" href=\"http:\/\/www.dallasisd.org\/botello\">http:\/\/www.dallasisd.org\/botello<\/a>", "CITY": "Dallas", "ZIP": "75203", "SCHOOLNAME": "Botello Personalized Learning Academy", "TEA": "289", "LEVEL": "Elementary", "PHONE": "2149325179", "SLN": "289", "FID": "72", "ADDRESS": "225 S. Marsalis Ave.", "Field_1": "Botello Personalized Learning Academy" }, "geometry": { "type": "Point", "coordinates": [ -96.816417285097074, 32.745633610077178 ] } },
{ "type": "Feature", "properties": { "Name": "Bowie Elementary School", "description": null, "altitudeMode": "clampToGround", "WEBSITE": "<a target=\"_blank\" href=\"http:\/\/www.dallasisd.org\/bowie\">http:\/\/www.dallasisd.org\/bowie<\/a>", "CITY": "Dallas", "ZIP": "75203", "SCHOOLNAME": "Bowie Elementary School", "TEA": "112", "LEVEL": "Elementary", "PHONE": "9729256600", "SLN": "112", "FID": "73", "ADDRESS": "330 N. Marsalis Ave.", "Field_1": "Bowie Elementary School" }, "geometry": { "type": "Point", "coordinates": [ -96.814863464198893, 32.752363972508647 ] } },
{ "type": "Feature", "properties": { "Name": "Cowart Elementary School", "description": null, "altitudeMode": "clampToGround", "WEBSITE": "<a target=\"_blank\" href=\"http:\/\/www.dallasisd.org\/cowart\">http:\/\/www.dallasisd.org\/cowart<\/a>", "CITY": "Dallas", "ZIP": "75211", "SCHOOLNAME": "Cowart Elementary School", "TEA": "130", "LEVEL": "Elementary", "PHONE": "9727945500", "SLN": "130", "FID": "74", "ADDRESS": "1515 S. Ravinia", "Field_1": "Cowart Elementary School" }, "geometry": { "type": "Point", "coordinates": [ -96.86993269999617, 32.728010254726442 ] } },
{ "type": "Feature", "properties": { "Name": "Donald Elementary School", "description": null, "altitudeMode": "clampToGround", "WEBSITE": "<a target=\"_blank\" href=\"http:\/\/www.dallasisd.org\/donald\">http:\/\/www.dallasisd.org\/donald<\/a>", "CITY": "Dallas", "ZIP": "75211", "SCHOOLNAME": "Donald Elementary School", "TEA": "136", "LEVEL": "Elementary", "PHONE": "9727945300", "SLN": "136", "FID": "75", "ADDRESS": "1218 Phinney Ave.", "Field_1": "Donald Elementary School" }, "geometry": { "type": "Point", "coordinates": [ -96.887080053626192, 32.732522342921627 ] } },
{ "type": "Feature", "properties": { "Name": "Hall Personalized Learning Academy at Oak Cliff", "description": null, "altitudeMode": "clampToGround", "WEBSITE": "<a target=\"_blank\" href=\"http:\/\/www.dallasisd.org\/hall\">http:\/\/www.dallasisd.org\/hall<\/a>", "CITY": "Dallas", "ZIP": "75211", "SCHOOLNAME": "Hall Personalized Learning Academy at Oak Cliff", "TEA": "149", "LEVEL": "Elementary", "PHONE": "9727945400", "SLN": "149", "FID": "76", "ADDRESS": "2120 Keats Dr.", "Field_1": "Hall Personalized Learning Academy at Oak Cliff" }, "geometry": { "type": "Point", "coordinates": [ -96.881260576008756, 32.721741182722333 ] } },
{ "type": "Feature", "properties": { "Name": "Henderson Elementary School", "description": null, "altitudeMode": "clampToGround", "WEBSITE": "<a target=\"_blank\" href=\"http:\/\/www.dallasisd.org\/henderson\">http:\/\/www.dallasisd.org\/henderson<\/a>", "CITY": "Dallas", "ZIP": "75224", "SCHOOLNAME": "Henderson Elementary School", "TEA": "152", "LEVEL": "Elementary", "PHONE": "9727492900", "SLN": "152", "FID": "77", "ADDRESS": "2200 S. Edgefield St.", "Field_1": "Henderson Elementary School" }, "geometry": { "type": "Point", "coordinates": [ -96.843917719321297, 32.723974196031882 ] } },
{ "type": "Feature", "properties": { "Name": "Hogg New Tech Center", "description": null, "altitudeMode": "clampToGround", "WEBSITE": "<a target=\"_blank\" href=\"http:\/\/www.dallasisd.org\/hogg\">http:\/\/www.dallasisd.org\/hogg<\/a>", "CITY": "Dallas", "ZIP": "75208", "SCHOOLNAME": "Hogg New Tech Center", "TEA": "157", "LEVEL": "Elementary", "PHONE": "9725028600", "SLN": "157", "FID": "78", "ADDRESS": "1144 N. Madison Ave.", "Field_1": "Hogg New Tech Center" }, "geometry": { "type": "Point", "coordinates": [ -96.825082084122741, 32.756879588800153 ] } },
{ "type": "Feature", "properties": { "Name": "Hooe Elementary School", "description": null, "altitudeMode": "clampToGround", "WEBSITE": "<a target=\"_blank\" href=\"http:\/\/www.dallasisd.org\/hooe\">http:\/\/www.dallasisd.org\/hooe<\/a>", "CITY": "Dallas", "ZIP": "75211", "SCHOOLNAME": "Hooe Elementary School", "TEA": "158", "LEVEL": "Elementary", "PHONE": "9727946700", "SLN": "158", "FID": "79", "ADDRESS": "2419 Gladstone Dr.", "Field_1": "Hooe Elementary School" }, "geometry": { "type": "Point", "coordinates": [ -96.857457557660013, 32.74075465798154 ] } },
{ "type": "Feature", "properties": { "Name": "Kahn Elementary School", "description": null, "altitudeMode": "clampToGround", "WEBSITE": "<a target=\"_blank\" href=\"http:\/\/www.dallasisd.org\/kahn\">http:\/\/www.dallasisd.org\/kahn<\/a>", "CITY": "Dallas", "ZIP": "75211", "SCHOOLNAME": "Kahn Elementary School", "TEA": "275", "LEVEL": "Elementary", "PHONE": "9725021400", "SLN": "275", "FID": "80", "ADDRESS": "610 N. Franklin St.", "Field_1": "Kahn Elementary School" }, "geometry": { "type": "Point", "coordinates": [ -96.859849386155432, 32.751284664897 ] } },
{ "type": "Feature", "properties": { "Name": "Peabody Elementary School", "description": null, "altitudeMode": "clampToGround", "WEBSITE": "<a target=\"_blank\" href=\"http:\/\/www.dallasisd.org\/peabody\">http:\/\/www.dallasisd.org\/peabody<\/a>", "CITY": "Dallas", "ZIP": "75211", "SCHOOLNAME": "Peabody Elementary School", "TEA": "190", "LEVEL": "Elementary", "PHONE": "9727945200", "SLN": "190", "FID": "81", "ADDRESS": "3101 Raydell Place", "Field_1": "Peabody Elementary School" }, "geometry": { "type": "Point", "coordinates": [ -96.872950398735895, 32.742860530084023 ] } },
{ "type": "Feature", "properties": { "Name": "Peeler Elementary School", "description": null, "altitudeMode": "clampToGround", "WEBSITE": "<a target=\"_blank\" href=\"http:\/\/www.dallasisd.org\/peeler\">http:\/\/www.dallasisd.org\/peeler<\/a>", "CITY": "Dallas", "ZIP": "75208", "SCHOOLNAME": "Peeler Elementary School", "TEA": "192", "LEVEL": "Elementary", "PHONE": "9725028300", "SLN": "192", "FID": "82", "ADDRESS": "810 S. Llewellyn Ave.", "Field_1": "Peeler Elementary School" }, "geometry": { "type": "Point", "coordinates": [ -96.831187297340279, 32.738067283699522 ] } },
{ "type": "Feature", "properties": { "Name": "Reagan Elementary School", "description": null, "altitudeMode": "clampToGround", "WEBSITE": "<a target=\"_blank\" href=\"http:\/\/www.dallasisd.org\/reagan\">http:\/\/www.dallasisd.org\/reagan<\/a>", "CITY": "Dallas", "ZIP": "75208", "SCHOOLNAME": "Reagan Elementary School", "TEA": "197", "LEVEL": "Elementary", "PHONE": "9725028200", "SLN": "197", "FID": "83", "ADDRESS": "201 N. Adams Ave.", "Field_1": "Reagan Elementary School" }, "geometry": { "type": "Point", "coordinates": [ -96.831152489059136, 32.746840846271468 ] } },
{ "type": "Feature", "properties": { "Name": "Rosemont Lower", "description": null, "altitudeMode": "clampToGround", "WEBSITE": "<a target=\"_blank\" href=\"http:\/\/www.dallasisd.org\/rosemont\">http:\/\/www.dallasisd.org\/rosemont<\/a>", "CITY": "Dallas", "ZIP": "75208", "SCHOOLNAME": "Rosemont Lower", "TEA": "204", "LEVEL": "Elementary", "PHONE": "9727495000", "SLN": "204", "FID": "84", "ADDRESS": "1919 Stevens Forest Dr.", "Field_1": "Rosemont Lower" }, "geometry": { "type": "Point", "coordinates": [ -96.850493955332894, 32.752697811788948 ] } },
{ "type": "Feature", "properties": { "Name": "Stevens Park Elementary School", "description": null, "altitudeMode": "clampToGround", "WEBSITE": "<a target=\"_blank\" href=\"http:\/\/www.dallasisd.org\/stevenspark\">http:\/\/www.dallasisd.org\/stevenspark<\/a>", "CITY": "Dallas", "ZIP": "75211", "SCHOOLNAME": "Stevens Park Elementary School", "TEA": "211", "LEVEL": "Elementary", "PHONE": "9727944200", "SLN": "211", "FID": "86", "ADDRESS": "2615 W. Colorado Blvd.", "Field_1": "Stevens Park Elementary School" }, "geometry": { "type": "Point", "coordinates": [ -96.864884829157475, 32.760752072714659 ] } },
{ "type": "Feature", "properties": { "Name": "Winnetka Elementary School", "description": null, "altitudeMode": "clampToGround", "WEBSITE": "<a target=\"_blank\" href=\"http:\/\/www.dallasisd.org\/winnetka\">http:\/\/www.dallasisd.org\/winnetka<\/a>", "CITY": "Dallas", "ZIP": "75208", "SCHOOLNAME": "Winnetka Elementary School", "TEA": "229", "LEVEL": "Elementary", "PHONE": "9727495100", "SLN": "229", "FID": "87", "ADDRESS": "1151 S. Edgefield Ave.", "Field_1": "Winnetka Elementary School" }, "geometry": { "type": "Point", "coordinates": [ -96.845243741899893, 32.734400722413568 ] } },
{ "type": "Feature", "properties": { "Name": "Lakewood Elementary School", "description": null, "altitudeMode": "clampToGround", "WEBSITE": "<a target=\"_blank\" href=\"http:\/\/www.dallasisd.org\/lakewood\">http:\/\/www.dallasisd.org\/lakewood<\/a>", "CITY": "Dallas", "ZIP": "75214", "SCHOOLNAME": "Lakewood Elementary School", "TEA": "171", "LEVEL": "Elementary", "PHONE": "9727497300", "SLN": "171", "FID": "88", "ADDRESS": "3000 Hillbrook St.", "Field_1": "Lakewood Elementary School" }, "geometry": { "type": "Point", "coordinates": [ -96.743750687246276, 32.825763241768911 ] } },
{ "type": "Feature", "properties": { "Name": "Casa View Elementary School", "description": null, "altitudeMode": "clampToGround", "WEBSITE": "<a target=\"_blank\" href=\"http:\/\/www.dallasisd.org\/casaview\">http:\/\/www.dallasisd.org\/casaview<\/a>", "CITY": "Dallas", "ZIP": "75228", "SCHOOLNAME": "Casa View Elementary School", "TEA": "125", "LEVEL": "Elementary", "PHONE": "9727497700", "SLN": "125", "FID": "89", "ADDRESS": "2100 N. Farola Dr.", "Field_1": "Casa View Elementary School" }, "geometry": { "type": "Point", "coordinates": [ -96.674732221779394, 32.845485410706978 ] } },
{ "type": "Feature", "properties": { "Name": "Gill Elementary School", "description": null, "altitudeMode": "clampToGround", "WEBSITE": "<a target=\"_blank\" href=\"http:\/\/www.dallasisd.org\/gill\">http:\/\/www.dallasisd.org\/gill<\/a>", "CITY": "Dallas", "ZIP": "75228", "SCHOOLNAME": "Gill Elementary School", "TEA": "147", "LEVEL": "Elementary", "PHONE": "9727498400", "SLN": "147", "FID": "90", "ADDRESS": "10910 Ferguson Rd.", "Field_1": "Gill Elementary School" }, "geometry": { "type": "Point", "coordinates": [ -96.660725668338756, 32.844213867026923 ] } },
{ "type": "Feature", "properties": { "Name": "Hexter Elementary School", "description": null, "altitudeMode": "clampToGround", "WEBSITE": "<a target=\"_blank\" href=\"http:\/\/www.dallasisd.org\/hexter\">http:\/\/www.dallasisd.org\/hexter<\/a>", "CITY": "Dallas", "ZIP": "75218", "SCHOOLNAME": "Hexter Elementary School", "TEA": "153", "LEVEL": "Elementary", "PHONE": "9725025800", "SLN": "153", "FID": "91", "ADDRESS": "9720 Waterview Rd.", "Field_1": "Hexter Elementary School" }, "geometry": { "type": "Point", "coordinates": [ -96.709594579013725, 32.849238959021349 ] } },
{ "type": "Feature", "properties": { "Name": "Hotchkiss Elementary School", "description": null, "altitudeMode": "clampToGround", "WEBSITE": "<a target=\"_blank\" href=\"http:\/\/www.dallasisd.org\/hotchkiss\">http:\/\/www.dallasisd.org\/hotchkiss<\/a>", "CITY": "Dallas", "ZIP": "75231", "SCHOOLNAME": "Hotchkiss Elementary School", "TEA": "159", "LEVEL": "Elementary", "PHONE": "9727497000", "SLN": "159", "FID": "92", "ADDRESS": "6929 Town North Dr.", "Field_1": "Hotchkiss Elementary School" }, "geometry": { "type": "Point", "coordinates": [ -96.740503437866536, 32.858666093858631 ] } },
{ "type": "Feature", "properties": { "Name": "Kiest Elementary School", "description": null, "altitudeMode": "clampToGround", "WEBSITE": "<a target=\"_blank\" href=\"http:\/\/www.dallasisd.org\/kiest\">http:\/\/www.dallasisd.org\/kiest<\/a>", "CITY": "Dallas", "ZIP": "75228", "SCHOOLNAME": "Kiest Elementary School", "TEA": "166", "LEVEL": "Elementary", "PHONE": "9725025600", "SLN": "166", "FID": "93", "ADDRESS": "2611 Healey Dr.", "Field_1": "Kiest Elementary School" }, "geometry": { "type": "Point", "coordinates": [ -96.670512443324498, 32.825863561575673 ] } },
{ "type": "Feature", "properties": { "Name": "Reilly Elementary School", "description": null, "altitudeMode": "clampToGround", "WEBSITE": "<a target=\"_blank\" href=\"http:\/\/www.dallasisd.org\/reilly\">http:\/\/www.dallasisd.org\/reilly<\/a>", "CITY": "Dallas", "ZIP": "75218", "SCHOOLNAME": "Reilly Elementary School", "TEA": "198", "LEVEL": "Elementary", "PHONE": "9727497800", "SLN": "198", "FID": "94", "ADDRESS": "11230 Lippitt Ave.", "Field_1": "Reilly Elementary School" }, "geometry": { "type": "Point", "coordinates": [ -96.688371375746243, 32.854761589640503 ] } },
{ "type": "Feature", "properties": { "Name": "Young Jr. Elementary School", "description": null, "altitudeMode": "clampToGround", "WEBSITE": "<a target=\"_blank\" href=\"http:\/\/www.dallasisd.org\/young\">http:\/\/www.dallasisd.org\/young<\/a>", "CITY": "Dallas", "ZIP": "75216", "SCHOOLNAME": "Young Jr. Elementary School", "TEA": "250", "LEVEL": "Elementary", "PHONE": "9727492000", "SLN": "250", "FID": "96", "ADDRESS": "4601 Veterans Dr.", "Field_1": "Young Jr. Elementary School" }, "geometry": { "type": "Point", "coordinates": [ -96.785887174956784, 32.696286071037292 ] } },
{ "type": "Feature", "properties": { "Name": "Brashear Elementary School", "description": null, "altitudeMode": "clampToGround", "WEBSITE": "<a target=\"_blank\" href=\"http:\/\/www.dallasisd.org\/brashear\">http:\/\/www.dallasisd.org\/brashear<\/a>", "CITY": "Dallas", "ZIP": "75224", "SCHOOLNAME": "Brashear Elementary School", "TEA": "172", "LEVEL": "Elementary", "PHONE": "9725022600", "SLN": "172", "FID": "97", "ADDRESS": "2959 S. Hampton Rd.", "Field_1": "Brashear Elementary School" }, "geometry": { "type": "Point", "coordinates": [ -96.857862023036134, 32.71258669219435 ] } },
{ "type": "Feature", "properties": { "Name": "Marsalis Elementary STEAM Academy", "description": null, "altitudeMode": "clampToGround", "WEBSITE": "<a target=\"_blank\" href=\"http:\/\/www.dallasisd.org\/marsalis\">http:\/\/www.dallasisd.org\/marsalis<\/a>", "CITY": "Dallas", "ZIP": "75241", "SCHOOLNAME": "Marsalis Elementary STEAM Academy", "TEA": "183", "LEVEL": "Elementary", "PHONE": "9727493500", "SLN": "183", "FID": "98", "ADDRESS": "5640 S. Marsalis Ave.", "Field_1": "Marsalis Elementary STEAM Academy" }, "geometry": { "type": "Point", "coordinates": [ -96.813344474966456, 32.678178645936619 ] } },
{ "type": "Feature", "properties": { "Name": "Stemmons Elementary School", "description": null, "altitudeMode": "clampToGround", "WEBSITE": "<a target=\"_blank\" href=\"http:\/\/www.dallasisd.org\/stemmons\">http:\/\/www.dallasisd.org\/stemmons<\/a>", "CITY": "Dallas", "ZIP": "75211", "SCHOOLNAME": "Stemmons Elementary School", "TEA": "210", "LEVEL": "Elementary", "PHONE": "9727944900", "SLN": "210", "FID": "99", "ADDRESS": "2727 Knoxville St.", "Field_1": "Stemmons Elementary School" }, "geometry": { "type": "Point", "coordinates": [ -96.901532160845207, 32.715664979471242 ] } },
{ "type": "Feature", "properties": { "Name": "Terry Elementary School", "description": null, "altitudeMode": "clampToGround", "WEBSITE": "<a target=\"_blank\" href=\"http:\/\/www.dallasisd.org\/terry\">http:\/\/www.dallasisd.org\/terry<\/a>", "CITY": "Dallas", "ZIP": "75232", "SCHOOLNAME": "Terry Elementary School", "TEA": "213", "LEVEL": "Elementary", "PHONE": "9727493200", "SLN": "213", "FID": "100", "ADDRESS": "6661 Greenspan Ave.", "Field_1": "Terry Elementary School" }, "geometry": { "type": "Point", "coordinates": [ -96.830201524694274, 32.665559957060289 ] } },
{ "type": "Feature", "properties": { "Name": "Thornton Elementary School", "description": null, "altitudeMode": "clampToGround", "WEBSITE": "<a target=\"_blank\" href=\"http:\/\/www.dallasisd.org\/rlthornton\">http:\/\/www.dallasisd.org\/rlthornton<\/a>", "CITY": "Dallas", "ZIP": "75241", "SCHOOLNAME": "Thornton Elementary School", "TEA": "215", "LEVEL": "Elementary", "PHONE": "9727948000", "SLN": "215", "FID": "101", "ADDRESS": "6011 Old Ox Rd.", "Field_1": "Thornton Elementary School" }, "geometry": { "type": "Point", "coordinates": [ -96.797960643605393, 32.674097385803378 ] } },
{ "type": "Feature", "properties": { "Name": "Tolbert Elementary School", "description": null, "altitudeMode": "clampToGround", "WEBSITE": "<a target=\"_blank\" href=\"http:\/\/www.dallasisd.org\/tolbert\">http:\/\/www.dallasisd.org\/tolbert<\/a>", "CITY": "Dallas", "ZIP": "75233", "SCHOOLNAME": "Tolbert Elementary School", "TEA": "277", "LEVEL": "Elementary", "PHONE": "9727945900", "SLN": "277", "FID": "102", "ADDRESS": "4000 Blue Ridge Rd.", "Field_1": "Tolbert Elementary School" }, "geometry": { "type": "Point", "coordinates": [ -96.887916587545135, 32.699128933030103 ] } },
{ "type": "Feature", "properties": { "Name": "Turner Elementary School", "description": null, "altitudeMode": "clampToGround", "WEBSITE": "<a target=\"_blank\" href=\"http:\/\/www.dallasisd.org\/turner\">http:\/\/www.dallasisd.org\/turner<\/a>", "CITY": "Dallas", "ZIP": "75232", "SCHOOLNAME": "Turner Elementary School", "TEA": "219", "LEVEL": "Elementary", "PHONE": "9727946300", "SLN": "219", "FID": "103", "ADDRESS": "5505 S. Polk St.", "Field_1": "Turner Elementary School" }, "geometry": { "type": "Point", "coordinates": [ -96.842391833690115, 32.678458871798377 ] } },
{ "type": "Feature", "properties": { "Name": "Webster Elementary School", "description": null, "altitudeMode": "clampToGround", "WEBSITE": "<a target=\"_blank\" href=\"http:\/\/www.dallasisd.org\/webster\">http:\/\/www.dallasisd.org\/webster<\/a>", "CITY": "Dallas", "ZIP": "75233", "SCHOOLNAME": "Webster Elementary School", "TEA": "225", "LEVEL": "Elementary", "PHONE": "9727946100", "SLN": "225", "FID": "104", "ADDRESS": "3815 S. Franklin St.", "Field_1": "Webster Elementary School" }, "geometry": { "type": "Point", "coordinates": [ -96.861543423452645, 32.696796839297257 ] } },
{ "type": "Feature", "properties": { "Name": "Bethune Elementary School", "description": null, "altitudeMode": "clampToGround", "WEBSITE": "<a target=\"_blank\" href=\"http:\/\/www.dallasisd.org\/bethune\">http:\/\/www.dallasisd.org\/bethune<\/a>", "CITY": "Dallas", "ZIP": "75211", "SCHOOLNAME": "Bethune Elementary School", "TEA": "274", "LEVEL": "Elementary", "PHONE": "9725021300", "SLN": "274", "FID": "105", "ADDRESS": "1665 Duncanville Rd.", "Field_1": "Bethune Elementary School" }, "geometry": { "type": "Point", "coordinates": [ -96.909788013785118, 32.726596928114397 ] } },
{ "type": "Feature", "properties": { "Name": "Cochran Elementary School", "description": null, "altitudeMode": "clampToGround", "WEBSITE": "<a target=\"_blank\" href=\"http:\/\/www.dallasisd.org\/cochran\">http:\/\/www.dallasisd.org\/cochran<\/a>", "CITY": "Dallas", "ZIP": "75211", "SCHOOLNAME": "Cochran Elementary School", "TEA": "236", "LEVEL": "Elementary", "PHONE": "9727944600", "SLN": "236", "FID": "106", "ADDRESS": "6000 Keeneland Pkwy.", "Field_1": "Cochran Elementary School" }, "geometry": { "type": "Point", "coordinates": [ -96.925258455653577, 32.735489797207627 ] } },
{ "type": "Feature", "properties": { "Name": "Jones Elementary School", "description": null, "altitudeMode": "clampToGround", "WEBSITE": "<a target=\"_blank\" href=\"http:\/\/www.dallasisd.org\/jones\">http:\/\/www.dallasisd.org\/jones<\/a>", "CITY": "Dallas", "ZIP": "75211", "SCHOOLNAME": "Jones Elementary School", "TEA": "164", "LEVEL": "Elementary", "PHONE": "9727944700", "SLN": "164", "FID": "107", "ADDRESS": "3901 Meredith Ave.", "Field_1": "Jones Elementary School" }, "geometry": { "type": "Point", "coordinates": [ -96.884837709832951, 32.742925459273721 ] } },
{ "type": "Feature", "properties": { "Name": "Soto Jr. Elementary School", "description": null, "altitudeMode": "clampToGround", "WEBSITE": "<a target=\"_blank\" href=\"http:\/\/www.dallasisd.org\/soto\">http:\/\/www.dallasisd.org\/soto<\/a>", "CITY": "Dallas", "ZIP": "75211", "SCHOOLNAME": "Soto Jr. Elementary School", "TEA": "287", "LEVEL": "Elementary", "PHONE": "9725025100", "SLN": "287", "FID": "108", "ADDRESS": "4510 West Jefferson Blvd.", "Field_1": "Soto Jr. Elementary School" }, "geometry": { "type": "Point", "coordinates": [ -96.89444395117205, 32.735884879514551 ] } },
{ "type": "Feature", "properties": { "Name": "Bryan Elementary School", "description": null, "altitudeMode": "clampToGround", "WEBSITE": "<a target=\"_blank\" href=\"http:\/\/www.dallasisd.org\/bryan\">http:\/\/www.dallasisd.org\/bryan<\/a>", "CITY": "Dallas", "ZIP": "75216", "SCHOOLNAME": "Bryan Elementary School", "TEA": "114", "LEVEL": "Elementary", "PHONE": "9725028500", "SLN": "114", "FID": "109", "ADDRESS": "2001 Deer Path Dr.", "Field_1": "Bryan Elementary School" }, "geometry": { "type": "Point", "coordinates": [ -96.795012775392252, 32.711586088591872 ] } },
{ "type": "Feature", "properties": { "Name": "Budd Elementary School", "description": null, "altitudeMode": "clampToGround", "WEBSITE": "<a target=\"_blank\" href=\"http:\/\/www.dallasisd.org\/budd\">http:\/\/www.dallasisd.org\/budd<\/a>", "CITY": "Dallas", "ZIP": "75216", "SCHOOLNAME": "Budd Elementary School", "TEA": "115", "LEVEL": "Elementary", "PHONE": "9725028400", "SLN": "115", "FID": "110", "ADDRESS": "2121 S. Marsalis Ave.", "Field_1": "Budd Elementary School" }, "geometry": { "type": "Point", "coordinates": [ -96.815151705794662, 32.722070993476038 ] } },
{ "type": "Feature", "properties": { "Name": "Bushman Elementary School", "description": null, "altitudeMode": "clampToGround", "WEBSITE": "<a target=\"_blank\" href=\"http:\/\/www.dallasisd.org\/bushman\">http:\/\/www.dallasisd.org\/bushman<\/a>", "CITY": "Dallas", "ZIP": "75216", "SCHOOLNAME": "Bushman Elementary School", "TEA": "118", "LEVEL": "Elementary", "PHONE": "9727491800", "SLN": "118", "FID": "111", "ADDRESS": "4200 Bonnie View Rd.", "Field_1": "Bushman Elementary School" }, "geometry": { "type": "Point", "coordinates": [ -96.773651192352631, 32.708433486204839 ] } },
{ "type": "Feature", "properties": { "Name": "Dealey International Academy", "description": null, "altitudeMode": "clampToGround", "WEBSITE": "<a target=\"_blank\" href=\"http:\/\/www.dallasisd.org\/dealey\">http:\/\/www.dallasisd.org\/dealey<\/a>", "CITY": "Dallas", "ZIP": "75230", "SCHOOLNAME": "Dealey International Academy", "TEA": "134", "LEVEL": "Magnet", "PHONE": "9727948400", "SLN": "134", "FID": "112", "ADDRESS": "6501 Royal Lane", "Field_1": "Dealey International Academy" }, "geometry": { "type": "Point", "coordinates": [ -96.791778609839312, 32.895762481294618 ] } },
{ "type": "Feature", "properties": { "Name": "Hillcrest High School", "description": null, "altitudeMode": "clampToGround", "WEBSITE": "<a target=\"_blank\" href=\"http:\/\/www.dallasisd.org\/hillcrest\">http:\/\/www.dallasisd.org\/hillcrest<\/a>", "CITY": "Dallas", "ZIP": "75230", "SCHOOLNAME": "Hillcrest High School", "TEA": "6", "LEVEL": "High", "PHONE": "9725026800", "SLN": "6", "FID": "113", "ADDRESS": "9924 Hillcrest Rd.", "Field_1": "Hillcrest High School" }, "geometry": { "type": "Point", "coordinates": [ -96.784630912266834, 32.883158942127857 ] } },
{ "type": "Feature", "properties": { "Name": "Seagoville High School", "description": null, "altitudeMode": "clampToGround", "WEBSITE": "<a target=\"_blank\" href=\"http:\/\/www.dallasisd.org\/seagovillehs\">http:\/\/www.dallasisd.org\/seagovillehs<\/a>", "CITY": "Dallas", "ZIP": "75253", "SCHOOLNAME": "Seagoville High School", "TEA": "15", "LEVEL": "High", "PHONE": "9728925900", "SLN": "15", "FID": "114", "ADDRESS": "15920 Seagoville Rd.", "Field_1": "Seagoville High School" }, "geometry": { "type": "Point", "coordinates": [ -96.583462010595454, 32.677569458937491 ] } },
{ "type": "Feature", "properties": { "Name": "New Tech High School", "description": null, "altitudeMode": "clampToGround", "WEBSITE": "<a target=\"_blank\" href=\"http:\/\/www.dallasisd.org\/newtech\">http:\/\/www.dallasisd.org\/newtech<\/a>", "CITY": "Dallas", "ZIP": "75216", "SCHOOLNAME": "New Tech High School", "TEA": "3", "LEVEL": "Magnet", "PHONE": "2149327600", "SLN": "3", "FID": "115", "ADDRESS": "4730 S. Lancaster Rd.", "Field_1": "New Tech High School" }, "geometry": { "type": "Point", "coordinates": [ -96.791048740830462, 32.6914353476838 ] } },
{ "type": "Feature", "properties": { "Name": "Wilmer-Hutchins High School", "description": null, "altitudeMode": "clampToGround", "WEBSITE": "<a target=\"_blank\" href=\"http:\/\/www.dallasisd.org\/wilmerhutchinshs\">http:\/\/www.dallasisd.org\/wilmerhutchinshs<\/a>", "CITY": "Dallas", "ZIP": "75241", "SCHOOLNAME": "Wilmer-Hutchins High School", "TEA": "380", "LEVEL": "High", "PHONE": "9729252900", "SLN": "380", "FID": "116", "ADDRESS": "5520 Langdon Rd.", "Field_1": "Wilmer-Hutchins High School" }, "geometry": { "type": "Point", "coordinates": [ -96.7297536193865, 32.656600595778762 ] } },
{ "type": "Feature", "properties": { "Name": "Carter High School", "description": null, "altitudeMode": "clampToGround", "WEBSITE": "<a target=\"_blank\" href=\"http:\/\/www.dallasisd.org\/carter\">http:\/\/www.dallasisd.org\/carter<\/a>", "CITY": "Dallas", "ZIP": "75232", "SCHOOLNAME": "Carter High School", "TEA": "23", "LEVEL": "High", "PHONE": "2149325700", "SLN": "23", "FID": "117", "ADDRESS": "1819 W. Wheatland Rd.", "Field_1": "Carter High School" }, "geometry": { "type": "Point", "coordinates": [ -96.848630686853568, 32.649685314145032 ] } },
{ "type": "Feature", "properties": { "Name": "Gilliam Collegiate Academy", "description": null, "altitudeMode": "clampToGround", "WEBSITE": "<a target=\"_blank\" href=\"http:\/\/www.dallasisd.org\/gilliam\">http:\/\/www.dallasisd.org\/gilliam<\/a>", "CITY": "Dallas", "ZIP": "75241", "SCHOOLNAME": "Gilliam Collegiate Academy", "TEA": "85", "LEVEL": "Magnet", "PHONE": "2149327300", "SLN": "85", "FID": "118", "ADDRESS": "1700 E. Camp Wisdom Rd.", "Field_1": "Gilliam Collegiate Academy" }, "geometry": { "type": "Point", "coordinates": [ -96.795337962999909, 32.662313684345257 ] } },
{ "type": "Feature", "properties": { "Name": "Madison High School", "description": null, "altitudeMode": "clampToGround", "WEBSITE": "<a target=\"_blank\" href=\"http:\/\/www.dallasisd.org\/madison\">http:\/\/www.dallasisd.org\/madison<\/a>", "CITY": "Dallas", "ZIP": "75215", "SCHOOLNAME": "Madison High School", "TEA": "32", "LEVEL": "High", "PHONE": "9729252800", "SLN": "32", "FID": "119", "ADDRESS": "3000 Martin Luther King Blvd.", "Field_1": "Madison High School" }, "geometry": { "type": "Point", "coordinates": [ -96.764868321242034, 32.771296729048402 ] } },
{ "type": "Feature", "properties": { "Name": "North Dallas High School", "description": null, "altitudeMode": "clampToGround", "WEBSITE": "<a target=\"_blank\" href=\"http:\/\/www.dallasisd.org\/northdallas\">http:\/\/www.dallasisd.org\/northdallas<\/a>", "CITY": "Dallas", "ZIP": "75204", "SCHOOLNAME": "North Dallas High School", "TEA": "24", "LEVEL": "High", "PHONE": "9729251500", "SLN": "24", "FID": "121", "ADDRESS": "3120 N. Haskell Ave.", "Field_1": "North Dallas High School" }, "geometry": { "type": "Point", "coordinates": [ -96.795687596693554, 32.809747188461174 ] } },
{ "type": "Feature", "properties": { "Name": "Wilson High School", "description": null, "altitudeMode": "clampToGround", "WEBSITE": "<a target=\"_blank\" href=\"http:\/\/www.dallasisd.org\/woodrow\">http:\/\/www.dallasisd.org\/woodrow<\/a>", "CITY": "Dallas", "ZIP": "75214", "SCHOOLNAME": "Wilson High School", "TEA": "22", "LEVEL": "High", "PHONE": "9725024400", "SLN": "22", "FID": "122", "ADDRESS": "100 S. Glasgow Dr.", "Field_1": "Wilson High School" }, "geometry": { "type": "Point", "coordinates": [ -96.751506931525682, 32.806086724128377 ] } },
{ "type": "Feature", "properties": { "Name": "Lassiter Early College at El Centro", "description": null, "altitudeMode": "clampToGround", "WEBSITE": "<a target=\"_blank\" href=\"http:\/\/www.dallasisd.org\/lassiter\">http:\/\/www.dallasisd.org\/lassiter<\/a>", "CITY": "Dallas", "ZIP": "75202", "SCHOOLNAME": "Lassiter Early College at El Centro", "TEA": "90", "LEVEL": "Magnet", "PHONE": "2148602356", "SLN": "90", "FID": "123", "ADDRESS": "701 Elm St.", "Field_1": "Lassiter Early College at El Centro" }, "geometry": { "type": "Point", "coordinates": [ -96.805304485093941, 32.779747892757818 ] } },
{ "type": "Feature", "properties": { "Name": "Travis Academy for Talented and Gifted", "description": null, "altitudeMode": "clampToGround", "WEBSITE": "<a target=\"_blank\" href=\"http:\/\/www.dallasisd.org\/travis\">http:\/\/www.dallasisd.org\/travis<\/a>", "CITY": "Dallas", "ZIP": "75204", "SCHOOLNAME": "Travis Academy for Talented and Gifted", "TEA": "217", "LEVEL": "Magnet", "PHONE": "9727947500", "SLN": "217", "FID": "124", "ADDRESS": "3001 McKinney Ave.", "Field_1": "Travis Academy for Talented and Gifted" }, "geometry": { "type": "Point", "coordinates": [ -96.801749053630218, 32.80048572339745 ] } },
{ "type": "Feature", "properties": { "Name": "Angelou High School", "description": null, "altitudeMode": "clampToGround", "WEBSITE": "<a target=\"_blank\" href=\"http:\/\/www.dallasisd.org\/angelou\">http:\/\/www.dallasisd.org\/angelou<\/a>", "CITY": "Dallas", "ZIP": "75224", "SCHOOLNAME": "Angelou High School", "TEA": "30", "LEVEL": "Alternative", "PHONE": "9727492263", "SLN": "30", "FID": "126", "ADDRESS": "3313 S. Beckley Ave.", "Field_1": "Angelou High School" }, "geometry": { "type": "Point", "coordinates": [ -96.824587027145057, 32.704531188089248 ] } },
{ "type": "Feature", "properties": { "Name": "Multiple Careers Magnet Center", "description": null, "altitudeMode": "clampToGround", "WEBSITE": "<a target=\"_blank\" href=\"http:\/\/www.dallasisd.org\/mcmc\">http:\/\/www.dallasisd.org\/mcmc<\/a>", "CITY": "Dallas", "ZIP": "75204", "SCHOOLNAME": "Multiple Careers Magnet Center", "TEA": "4", "LEVEL": "Alternative", "PHONE": "9729252200", "SLN": "4", "FID": "127", "ADDRESS": "4528 Rusk Ave.", "Field_1": "Multiple Careers Magnet Center" }, "geometry": { "type": "Point", "coordinates": [ -96.784539428560294, 32.807568285075007 ] } },
{ "type": "Feature", "properties": { "Name": "Mata Montessori School", "description": null, "altitudeMode": "clampToGround", "WEBSITE": "<a target=\"_blank\" href=\"http:\/\/www.dallasisd.org\/mata\">http:\/\/www.dallasisd.org\/mata<\/a>", "CITY": "Dallas", "ZIP": "75214", "SCHOOLNAME": "Mata Montessori School", "TEA": "270", "LEVEL": "Choice", "PHONE": "9727497500", "SLN": "270", "FID": "128", "ADDRESS": "7420 La Vista Dr.", "Field_1": "Mata Montessori School" }, "geometry": { "type": "Point", "coordinates": [ -96.731605048249094, 32.806366216587222 ] } },
{ "type": "Feature", "properties": { "Name": "Pinkston High School", "description": null, "altitudeMode": "clampToGround", "WEBSITE": "<a target=\"_blank\" href=\"http:\/\/www.dallasisd.org\/pinkston\">http:\/\/www.dallasisd.org\/pinkston<\/a>", "CITY": "Dallas", "ZIP": "75212", "SCHOOLNAME": "Pinkston High School", "TEA": "12", "LEVEL": "High", "PHONE": "9725022700", "SLN": "12", "FID": "129", "ADDRESS": "2200 Dennison St.", "Field_1": "Pinkston High School" }, "geometry": { "type": "Point", "coordinates": [ -96.858531319995521, 32.781132557096143 ] } },
{ "type": "Feature", "properties": { "Name": "Adamson High School", "description": null, "altitudeMode": "clampToGround", "WEBSITE": "<a target=\"_blank\" href=\"http:\/\/www.dallasisd.org\/adamson\">http:\/\/www.dallasisd.org\/adamson<\/a>", "CITY": "Dallas", "ZIP": "75203", "SCHOOLNAME": "Adamson High School", "TEA": "2", "LEVEL": "High", "PHONE": "9727491400", "SLN": "2", "FID": "130", "ADDRESS": "309 E. Ninth St.", "Field_1": "Adamson High School" }, "geometry": { "type": "Point", "coordinates": [ -96.820500632513031, 32.74843559651233 ] } },
{ "type": "Feature", "properties": { "Name": "Sunset High School", "description": null, "altitudeMode": "clampToGround", "WEBSITE": "<a target=\"_blank\" href=\"http:\/\/www.dallasisd.org\/sunset\">http:\/\/www.dallasisd.org\/sunset<\/a>", "CITY": "Dallas", "ZIP": "75208", "SCHOOLNAME": "Sunset High School", "TEA": "18", "LEVEL": "High", "PHONE": "9725021500", "SLN": "18", "FID": "131", "ADDRESS": "2120 W. Jefferson Blvd.", "Field_1": "Sunset High School" }, "geometry": { "type": "Point", "coordinates": [ -96.854444849955755, 32.746177400136602 ] } },
{ "type": "Feature", "properties": { "Name": "Adams High School", "description": null, "altitudeMode": "clampToGround", "WEBSITE": "<a target=\"_blank\" href=\"http:\/\/www.dallasisd.org\/bryanadams\">http:\/\/www.dallasisd.org\/bryanadams<\/a>", "CITY": "Dallas", "ZIP": "75228", "SCHOOLNAME": "Adams High School", "TEA": "1", "LEVEL": "High", "PHONE": "9725024900", "SLN": "1", "FID": "132", "ADDRESS": "2101 Millmar Dr.", "Field_1": "Adams High School" }, "geometry": { "type": "Point", "coordinates": [ -96.682903979121278, 32.827908466684079 ] } },
{ "type": "Feature", "properties": { "Name": "Stone Montessori Academy", "description": null, "altitudeMode": "clampToGround", "WEBSITE": "<a target=\"_blank\" href=\"http:\/\/www.dallasisd.org\/stone\">http:\/\/www.dallasisd.org\/stone<\/a>", "CITY": "Dallas", "ZIP": "75216", "SCHOOLNAME": "Stone Montessori Academy", "TEA": "212", "LEVEL": "Magnet", "PHONE": "9727943400", "SLN": "212", "FID": "133", "ADDRESS": "4747 Veterans Dr.", "Field_1": "Stone Montessori Academy" }, "geometry": { "type": "Point", "coordinates": [ -96.783081968455363, 32.693216087255507 ] } },
{ "type": "Feature", "properties": { "Name": "Kimball High School", "description": null, "altitudeMode": "clampToGround", "WEBSITE": "<a target=\"_blank\" href=\"http:\/\/www.dallasisd.org\/kimball\">http:\/\/www.dallasisd.org\/kimball<\/a>", "CITY": "Dallas", "ZIP": "75233", "SCHOOLNAME": "Kimball High School", "TEA": "8", "LEVEL": "High", "PHONE": "9725022100", "SLN": "8", "FID": "134", "ADDRESS": "3606 S. Westmoreland Rd.", "Field_1": "Kimball High School" }, "geometry": { "type": "Point", "coordinates": [ -96.876406785205305, 32.698247660742908 ] } },
{ "type": "Feature", "properties": { "Name": "Garza Early College at Mt. View", "description": null, "altitudeMode": "clampToGround", "WEBSITE": "<a target=\"_blank\" href=\"http:\/\/www.dallasisd.org\/garza\">http:\/\/www.dallasisd.org\/garza<\/a>", "CITY": "Dallas", "ZIP": "75211", "SCHOOLNAME": "Garza Early College at Mt. View", "TEA": "88", "LEVEL": "Magnet", "PHONE": "2148603680", "SLN": "88", "FID": "135", "ADDRESS": "4849 W. Illinois Ave. Rm.W53A", "Field_1": "Garza Early College at Mt. View" }, "geometry": { "type": "Point", "coordinates": [ -96.904622952166733, 32.725450759327202 ] } },
{ "type": "Feature", "properties": { "Name": "Molina High School", "description": null, "altitudeMode": "clampToGround", "WEBSITE": "<a target=\"_blank\" href=\"http:\/\/www.dallasisd.org\/molina\">http:\/\/www.dallasisd.org\/molina<\/a>", "CITY": "Dallas", "ZIP": "75211", "SCHOOLNAME": "Molina High School", "TEA": "5", "LEVEL": "High", "PHONE": "9725021000", "SLN": "5", "FID": "136", "ADDRESS": "2355 Duncanville Rd.", "Field_1": "Molina High School" }, "geometry": { "type": "Point", "coordinates": [ -96.910371587665949, 32.72270407248859 ] } },
{ "type": "Feature", "properties": { "Name": "Lincoln Humanities\/Communications Magnet", "description": null, "altitudeMode": "clampToGround", "WEBSITE": "<a target=\"_blank\" href=\"http:\/\/www.dallasisd.org\/lincoln\">http:\/\/www.dallasisd.org\/lincoln<\/a>", "CITY": "Dallas", "ZIP": "75215", "SCHOOLNAME": "Lincoln Humanities\/Communications Magnet", "TEA": "10", "LEVEL": "Magnet", "PHONE": "9729257600", "SLN": "10", "FID": "137", "ADDRESS": "2826 Hatcher St.", "Field_1": "Lincoln Humanities\/Communications Magnet" }, "geometry": { "type": "Point", "coordinates": [ -96.749706413648056, 32.754808443050187 ] } },
{ "type": "Feature", "properties": { "Name": "Skyline CDC High School", "description": null, "altitudeMode": "clampToGround", "WEBSITE": "<a target=\"_blank\" href=\"http:\/\/www.dallasisd.org\/skyline\">http:\/\/www.dallasisd.org\/skyline<\/a>", "CITY": "Dallas", "ZIP": "75227", "SCHOOLNAME": "Skyline CDC High School", "TEA": "840", "LEVEL": "Magnet", "PHONE": "9725023400", "SLN": "840", "FID": "138", "ADDRESS": "7777 Forney Rd.", "Field_1": "Skyline CDC High School" }, "geometry": { "type": "Point", "coordinates": [ -96.690557414975814, 32.780515191403524 ] } },
{ "type": "Feature", "properties": { "Name": "Polk TAG Elementary School", "description": null, "altitudeMode": "clampToGround", "WEBSITE": "<a target=\"_blank\" href=\"http:\/\/www.dallasisd.org\/polk\">http:\/\/www.dallasisd.org\/polk<\/a>", "CITY": "Dallas", "ZIP": "75209", "SCHOOLNAME": "Polk TAG Elementary School", "TEA": "828", "LEVEL": "Magnet", "PHONE": "9727948900", "SLN": "828", "FID": "139", "ADDRESS": "6911 Victoria Ave.", "Field_1": "Polk TAG Elementary School" }, "geometry": { "type": "Point", "coordinates": [ -96.831691403831556, 32.84226278268671 ] } },
{ "type": "Feature", "properties": { "Name": "Spence Talented\/Gifted Academy", "description": null, "altitudeMode": "clampToGround", "WEBSITE": "<a target=\"_blank\" href=\"http:\/\/www.dallasisd.org\/spence\">http:\/\/www.dallasisd.org\/spence<\/a>", "CITY": "Dallas", "ZIP": "75204", "SCHOOLNAME": "Spence Talented\/Gifted Academy", "TEA": "804", "LEVEL": "Magnet", "PHONE": "9729252300", "SLN": "804", "FID": "140", "ADDRESS": "4001 Capitol Ave.", "Field_1": "Spence Talented\/Gifted Academy" }, "geometry": { "type": "Point", "coordinates": [ -96.78800801380325, 32.807831128701658 ] } },
{ "type": "Feature", "properties": { "Name": "Lanier Expressive Arts Vanguard", "description": null, "altitudeMode": "clampToGround", "WEBSITE": "<a target=\"_blank\" href=\"http:\/\/www.dallasisd.org\/lanier\">http:\/\/www.dallasisd.org\/lanier<\/a>", "CITY": "Dallas", "ZIP": "75208", "SCHOOLNAME": "Lanier Expressive Arts Vanguard", "TEA": "827", "LEVEL": "Magnet", "PHONE": "9727944400", "SLN": "827", "FID": "141", "ADDRESS": "1400 Walmsley Ave.", "Field_1": "Lanier Expressive Arts Vanguard" }, "geometry": { "type": "Point", "coordinates": [ -96.844099981404597, 32.768918749233791 ] } },
{ "type": "Feature", "properties": { "Name": "Greiner Exploratory Arts Academy", "description": null, "altitudeMode": "clampToGround", "WEBSITE": "<a target=\"_blank\" href=\"http:\/\/www.dallasisd.org\/greineracademy\">http:\/\/www.dallasisd.org\/greineracademy<\/a>", "CITY": "Dallas", "ZIP": "75208", "SCHOOLNAME": "Greiner Exploratory Arts Academy", "TEA": "805", "LEVEL": "Magnet", "PHONE": "9729257100", "SLN": "805", "FID": "142", "ADDRESS": "501 S. Edgefield Ave.", "Field_1": "Greiner Exploratory Arts Academy" }, "geometry": { "type": "Point", "coordinates": [ -96.844955529023295, 32.74000955916182 ] } },
{ "type": "Feature", "properties": { "Name": "Rosemont Upper", "description": null, "altitudeMode": "clampToGround", "WEBSITE": "<a target=\"_blank\" href=\"http:\/\/www.dallasisd.org\/rosemont\">http:\/\/www.dallasisd.org\/rosemont<\/a>", "CITY": "Dallas", "ZIP": "75208", "SCHOOLNAME": "Rosemont Upper", "TEA": "359", "LEVEL": "Magnet", "PHONE": "9727495000", "SLN": "359", "FID": "143", "ADDRESS": "719 N. Montclair Ave.", "Field_1": "Rosemont Upper" }, "geometry": { "type": "Point", "coordinates": [ -96.847356591597119, 32.75167634301485 ] } },
{ "type": "Feature", "properties": { "Name": "Atwell Law Academy", "description": null, "altitudeMode": "clampToGround", "WEBSITE": "<a target=\"_blank\" href=\"http:\/\/www.dallasisd.org\/atwellacademy\">http:\/\/www.dallasisd.org\/atwellacademy<\/a>", "CITY": "Dallas", "ZIP": "75232", "SCHOOLNAME": "Atwell Law Academy", "TEA": "803", "LEVEL": "Magnet", "PHONE": "9727946400", "SLN": "803", "FID": "144", "ADDRESS": "1303 Reynoldston Lane", "Field_1": "Atwell Law Academy" }, "geometry": { "type": "Point", "coordinates": [ -96.841762041342747, 32.677771098597887 ] } },
{ "type": "Feature", "properties": { "Name": "Marsh Preparatory Academy Middle School", "description": null, "altitudeMode": "clampToGround", "WEBSITE": "<a target=\"_blank\" href=\"http:\/\/www.dallasisd.org\/marsh\">http:\/\/www.dallasisd.org\/marsh<\/a>", "CITY": "Dallas", "ZIP": "75244", "SCHOOLNAME": "Marsh Preparatory Academy Middle School", "TEA": "54", "LEVEL": "Middle", "PHONE": "9725026600", "SLN": "54", "FID": "146", "ADDRESS": "3838 Crown Shore Dr.", "Field_1": "Marsh Preparatory Academy Middle School" }, "geometry": { "type": "Point", "coordinates": [ -96.850109344227633, 32.911339195921322 ] } },
{ "type": "Feature", "properties": { "Name": "Walker Middle School", "description": null, "altitudeMode": "clampToGround", "WEBSITE": "<a target=\"_blank\" href=\"http:\/\/www.dallasisd.org\/walker\">http:\/\/www.dallasisd.org\/walker<\/a>", "CITY": "Dallas", "ZIP": "75230", "SCHOOLNAME": "Walker Middle School", "TEA": "56", "LEVEL": "Middle", "PHONE": "9725026100", "SLN": "56", "FID": "147", "ADDRESS": "12532 Nuestra Dr.", "Field_1": "Walker Middle School" }, "geometry": { "type": "Point", "coordinates": [ -96.809896769188597, 32.919398597331892 ] } },
{ "type": "Feature", "properties": { "Name": "Tasby Middle School", "description": null, "altitudeMode": "clampToGround", "WEBSITE": "<a target=\"_blank\" href=\"http:\/\/www.dallasisd.org\/tasby\">http:\/\/www.dallasisd.org\/tasby<\/a>", "CITY": "Dallas", "ZIP": "75231", "SCHOOLNAME": "Tasby Middle School", "TEA": "83", "LEVEL": "Middle", "PHONE": "9725021900", "SLN": "83", "FID": "148", "ADDRESS": "7001 Fair Oaks Ave.", "Field_1": "Tasby Middle School" }, "geometry": { "type": "Point", "coordinates": [ -96.759951382441557, 32.87248989257408 ] } },
{ "type": "Feature", "properties": { "Name": "Young Men's Leadership Academy at Fred F. Florence Middle School", "description": null, "altitudeMode": "clampToGround", "WEBSITE": "<a target=\"_blank\" href=\"http:\/\/www.dallasisd.org\/florence\">http:\/\/www.dallasisd.org\/florence<\/a>", "CITY": "Dallas", "ZIP": "75217", "SCHOOLNAME": "Young Men's Leadership Academy at Fred F. Florence Middle School", "TEA": "46", "LEVEL": "Middle", "PHONE": "9727496000", "SLN": "46", "FID": "149", "ADDRESS": "1625 N. Masters Dr.", "Field_1": "Young Men's Leadership Academy at Fred F. Florence Middle School" }, "geometry": { "type": "Point", "coordinates": [ -96.649311534860658, 32.741495550116078 ] } },
{ "type": "Feature", "properties": { "Name": "Piedmont Global Academy Middle School", "description": null, "altitudeMode": "clampToGround", "WEBSITE": "<a target=\"_blank\" href=\"http:\/\/www.dallasisd.org\/hood\">http:\/\/www.dallasisd.org\/hood<\/a>", "CITY": "Dallas", "ZIP": "75227", "SCHOOLNAME": "Piedmont Global Academy Middle School", "TEA": "52", "LEVEL": "Middle", "PHONE": "9727494100", "SLN": "52", "FID": "151", "ADDRESS": "7625 Hume Dr.", "Field_1": "Piedmont Global Academy Middle School" }, "geometry": { "type": "Point", "coordinates": [ -96.691145842606616, 32.75846411531694 ] } },
{ "type": "Feature", "properties": { "Name": "Young Women's STEAM Academy at Balch Springs Middle School", "description": null, "altitudeMode": "clampToGround", "WEBSITE": "<a target=\"_blank\" href=\"http:\/\/www.dallasisd.org\/balchsprings\">http:\/\/www.dallasisd.org\/balchsprings<\/a>", "CITY": "Balch Spr", "ZIP": "75180", "SCHOOLNAME": "Young Women's STEAM Academy at Balch Springs Middle School", "TEA": "352", "LEVEL": "Middle", "PHONE": "9728925800", "SLN": "352", "FID": "152", "ADDRESS": "710 Cheyenne Rd.", "Field_1": "Young Women's STEAM Academy at Balch Springs Middle School" }, "geometry": { "type": "Point", "coordinates": [ -96.638383661027774, 32.725644176381479 ] } },
{ "type": "Feature", "properties": { "Name": "Atwell Middle School", "description": null, "altitudeMode": "clampToGround", "WEBSITE": "<a target=\"_blank\" href=\"http:\/\/www.dallasisd.org\/atwellacademy\">http:\/\/www.dallasisd.org\/atwellacademy<\/a>", "CITY": "Dallas", "ZIP": "75232", "SCHOOLNAME": "Atwell Middle School", "TEA": "42", "LEVEL": "Middle", "PHONE": "9727946400", "SLN": "42", "FID": "153", "ADDRESS": "1303 Reynoldston Lane", "Field_1": "Atwell Middle School" }, "geometry": { "type": "Point", "coordinates": [ -96.841762041342747, 32.677771098597887 ] } },
{ "type": "Feature", "properties": { "Name": "Spence Middle School", "description": null, "altitudeMode": "clampToGround", "WEBSITE": "<a target=\"_blank\" href=\"http:\/\/www.dallasisd.org\/spence\">http:\/\/www.dallasisd.org\/spence<\/a>", "CITY": "Dallas", "ZIP": "75204", "SCHOOLNAME": "Spence Middle School", "TEA": "58", "LEVEL": "Middle", "PHONE": "9729252300", "SLN": "58", "FID": "154", "ADDRESS": "4001 Capitol Ave.", "Field_1": "Spence Middle School" }, "geometry": { "type": "Point", "coordinates": [ -96.78800801380325, 32.807831128701658 ] } },
{ "type": "Feature", "properties": { "Name": "Cedar Crest Elementary School", "description": null, "altitudeMode": "clampToGround", "WEBSITE": "<a target=\"_blank\" href=\"http:\/\/www.dallasisd.org\/cedarcrest\">http:\/\/www.dallasisd.org\/cedarcrest<\/a>", "CITY": "Dallas", "ZIP": "75203", "SCHOOLNAME": "Cedar Crest Elementary School", "TEA": "163", "LEVEL": "Elementary", "PHONE": "9729257400", "SLN": "163", "FID": "156", "ADDRESS": "2020 Mouser St.", "Field_1": "Cedar Crest Elementary School" }, "geometry": { "type": "Point", "coordinates": [ -96.792962517811219, 32.737462859267502 ] } },
{ "type": "Feature", "properties": { "Name": "Holland at Lisbon Elementary School", "description": null, "altitudeMode": "clampToGround", "WEBSITE": "<a target=\"_blank\" href=\"http:\/\/www.dallasisd.org\/holland\">http:\/\/www.dallasisd.org\/holland<\/a>", "CITY": "Dallas", "ZIP": "75216", "SCHOOLNAME": "Holland at Lisbon Elementary School", "TEA": "178", "LEVEL": "Elementary", "PHONE": "9727491900", "SLN": "178", "FID": "157", "ADDRESS": "4203 S. Lancaster Rd.", "Field_1": "Holland at Lisbon Elementary School" }, "geometry": { "type": "Point", "coordinates": [ -96.79581217822404, 32.697381041282739 ] } },
{ "type": "Feature", "properties": { "Name": "Miller Elementary School", "description": null, "altitudeMode": "clampToGround", "WEBSITE": "<a target=\"_blank\" href=\"http:\/\/www.dallasisd.org\/miller\">http:\/\/www.dallasisd.org\/miller<\/a>", "CITY": "Dallas", "ZIP": "75216", "SCHOOLNAME": "Miller Elementary School", "TEA": "185", "LEVEL": "Elementary", "PHONE": "9725028700", "SLN": "185", "FID": "158", "ADDRESS": "3111 Bonnie View Rd.", "Field_1": "Miller Elementary School" }, "geometry": { "type": "Point", "coordinates": [ -96.780225495602991, 32.718684233640602 ] } },
{ "type": "Feature", "properties": { "Name": "Trinity Heights Gifted and Talented", "description": null, "altitudeMode": "clampToGround", "WEBSITE": "<a target=\"_blank\" href=\"http:\/\/www.dallasisd.org\/trinityheights\">http:\/\/www.dallasisd.org\/trinityheights<\/a>", "CITY": "Dallas", "ZIP": "75216", "SCHOOLNAME": "Trinity Heights Gifted and Talented", "TEA": "186", "LEVEL": "Magnet", "PHONE": "9729257500", "SLN": "186", "FID": "159", "ADDRESS": "1515 Lynn Haven Ave.", "Field_1": "Trinity Heights Gifted and Talented" }, "geometry": { "type": "Point", "coordinates": [ -96.802332765876841, 32.732986880792303 ] } },
{ "type": "Feature", "properties": { "Name": "Oliver Elementary School", "description": null, "altitudeMode": "clampToGround", "WEBSITE": "<a target=\"_blank\" href=\"http:\/\/www.dallasisd.org\/oliver\">http:\/\/www.dallasisd.org\/oliver<\/a>", "CITY": "Dallas", "ZIP": "75216", "SCHOOLNAME": "Oliver Elementary School", "TEA": "189", "LEVEL": "Elementary", "PHONE": "9727493400", "SLN": "189", "FID": "160", "ADDRESS": "4010 Idaho Ave.", "Field_1": "Oliver Elementary School" }, "geometry": { "type": "Point", "coordinates": [ -96.810989570623619, 32.694928816599223 ] } },
{ "type": "Feature", "properties": { "Name": "Pease Elementary School", "description": null, "altitudeMode": "clampToGround", "WEBSITE": "<a target=\"_blank\" href=\"http:\/\/www.dallasisd.org\/pease\">http:\/\/www.dallasisd.org\/pease<\/a>", "CITY": "Dallas", "ZIP": "75216", "SCHOOLNAME": "Pease Elementary School", "TEA": "191", "LEVEL": "Elementary", "PHONE": "2149323800", "SLN": "191", "FID": "161", "ADDRESS": "2914 Cummings St.", "Field_1": "Pease Elementary School" }, "geometry": { "type": "Point", "coordinates": [ -96.772649292904219, 32.698003531499907 ] } },
{ "type": "Feature", "properties": { "Name": "Carpenter Elementary School", "description": null, "altitudeMode": "clampToGround", "WEBSITE": "<a target=\"_blank\" href=\"http:\/\/www.dallasisd.org\/carpenter\">http:\/\/www.dallasisd.org\/carpenter<\/a>", "CITY": "Dallas", "ZIP": "75224", "SCHOOLNAME": "Carpenter Elementary School", "TEA": "121", "LEVEL": "Elementary", "PHONE": "9727946000", "SLN": "121", "FID": "162", "ADDRESS": "2121 Tosca Lane", "Field_1": "Carpenter Elementary School" }, "geometry": { "type": "Point", "coordinates": [ -96.853022850154446, 32.695747624355171 ] } },
{ "type": "Feature", "properties": { "Name": "Jordan Elementary School", "description": null, "altitudeMode": "clampToGround", "WEBSITE": "<a target=\"_blank\" href=\"http:\/\/www.dallasisd.org\/jordan\">http:\/\/www.dallasisd.org\/jordan<\/a>", "CITY": "Dallas", "ZIP": "75224", "SCHOOLNAME": "Jordan Elementary School", "TEA": "133", "LEVEL": "Elementary", "PHONE": "9729258100", "SLN": "133", "FID": "163", "ADDRESS": "1111 W. Kiest Blvd.", "Field_1": "Jordan Elementary School" }, "geometry": { "type": "Point", "coordinates": [ -96.841680462032087, 32.706551627155449 ] } },
{ "type": "Feature", "properties": { "Name": "Russell Elementary School", "description": null, "altitudeMode": "clampToGround", "WEBSITE": "<a target=\"_blank\" href=\"http:\/\/www.dallasisd.org\/russell\">http:\/\/www.dallasisd.org\/russell<\/a>", "CITY": "Dallas", "ZIP": "75224", "SCHOOLNAME": "Russell Elementary School", "TEA": "205", "LEVEL": "Elementary", "PHONE": "9729258300", "SLN": "205", "FID": "164", "ADDRESS": "3031 S. Beckley Ave.", "Field_1": "Russell Elementary School" }, "geometry": { "type": "Point", "coordinates": [ -96.823887507578874, 32.70858806905801 ] } },
{ "type": "Feature", "properties": { "Name": "Nathan Adams Elementary School", "description": null, "altitudeMode": "clampToGround", "WEBSITE": "<a target=\"_blank\" href=\"http:\/\/www.dallasisd.org\/nathanadams\">http:\/\/www.dallasisd.org\/nathanadams<\/a>", "CITY": "Dallas", "ZIP": "75244", "SCHOOLNAME": "Nathan Adams Elementary School", "TEA": "233", "LEVEL": "Elementary", "PHONE": "9727942600", "SLN": "233", "FID": "165", "ADDRESS": "12600 Welch Rd.", "Field_1": "Nathan Adams Elementary School" }, "geometry": { "type": "Point", "coordinates": [ -96.828270525769483, 32.921520131997163 ] } },
{ "type": "Feature", "properties": { "Name": "Caillet Elementary School", "description": null, "altitudeMode": "clampToGround", "WEBSITE": "<a target=\"_blank\" href=\"http:\/\/www.dallasisd.org\/caillet\">http:\/\/www.dallasisd.org\/caillet<\/a>", "CITY": "Dallas", "ZIP": "75229", "SCHOOLNAME": "Caillet Elementary School", "TEA": "120", "LEVEL": "Elementary", "PHONE": "9727943200", "SLN": "120", "FID": "166", "ADDRESS": "3033 Merrell Rd.", "Field_1": "Caillet Elementary School" }, "geometry": { "type": "Point", "coordinates": [ -96.87453041543364, 32.888733617205418 ] } },
{ "type": "Feature", "properties": { "Name": "DeGolyer Elementary School", "description": null, "altitudeMode": "clampToGround", "WEBSITE": "<a target=\"_blank\" href=\"http:\/\/www.dallasisd.org\/degolyer\">http:\/\/www.dallasisd.org\/degolyer<\/a>", "CITY": "Dallas", "ZIP": "75229", "SCHOOLNAME": "DeGolyer Elementary School", "TEA": "135", "LEVEL": "Elementary", "PHONE": "9727942800", "SLN": "135", "FID": "167", "ADDRESS": "3453 Flair Dr.", "Field_1": "DeGolyer Elementary School" }, "geometry": { "type": "Point", "coordinates": [ -96.861464427951418, 32.904196046072407 ] } },
{ "type": "Feature", "properties": { "Name": "Gooch Elementary School", "description": null, "altitudeMode": "clampToGround", "WEBSITE": "<a target=\"_blank\" href=\"http:\/\/www.dallasisd.org\/gooch\">http:\/\/www.dallasisd.org\/gooch<\/a>", "CITY": "Dallas", "ZIP": "75244", "SCHOOLNAME": "Gooch Elementary School", "TEA": "148", "LEVEL": "Elementary", "PHONE": "9727942500", "SLN": "148", "FID": "168", "ADDRESS": "4030 Calculus Rd.", "Field_1": "Gooch Elementary School" }, "geometry": { "type": "Point", "coordinates": [ -96.844559131987864, 32.916963859432308 ] } },
{ "type": "Feature", "properties": { "Name": "Marcus Elementary School", "description": null, "altitudeMode": "clampToGround", "WEBSITE": "<a target=\"_blank\" href=\"http:\/\/www.dallasisd.org\/marcus\">http:\/\/www.dallasisd.org\/marcus<\/a>", "CITY": "Dallas", "ZIP": "75229", "SCHOOLNAME": "Marcus Elementary School", "TEA": "182", "LEVEL": "Elementary", "PHONE": "9727942900", "SLN": "182", "FID": "169", "ADDRESS": "2911 Northaven", "Field_1": "Marcus Elementary School" }, "geometry": { "type": "Point", "coordinates": [ -96.880030631749747, 32.904633232755629 ] } },
{ "type": "Feature", "properties": { "Name": "Walnut Hill Elementary School", "description": null, "altitudeMode": "clampToGround", "WEBSITE": "<a target=\"_blank\" href=\"http:\/\/www.dallasisd.org\/walnuthill\">http:\/\/www.dallasisd.org\/walnuthill<\/a>", "CITY": "Dallas", "ZIP": "75229", "SCHOOLNAME": "Walnut Hill Elementary School", "TEA": "224", "LEVEL": "Elementary", "PHONE": "9725027800", "SLN": "224", "FID": "171", "ADDRESS": "10115 Midway Rd.", "Field_1": "Walnut Hill Elementary School" }, "geometry": { "type": "Point", "coordinates": [ -96.839584676303701, 32.882877137436502 ] } },
{ "type": "Feature", "properties": { "Name": "Withers Elementary School", "description": null, "altitudeMode": "clampToGround", "WEBSITE": "<a target=\"_blank\" href=\"http:\/\/www.dallasisd.org\/withers\">http:\/\/www.dallasisd.org\/withers<\/a>", "CITY": "Dallas", "ZIP": "75229", "SCHOOLNAME": "Withers Elementary School", "TEA": "230", "LEVEL": "Elementary", "PHONE": "9727945000", "SLN": "230", "FID": "172", "ADDRESS": "3959 Northaven Rd.", "Field_1": "Withers Elementary School" }, "geometry": { "type": "Point", "coordinates": [ -96.845915222806624, 32.90325162951607 ] } },
{ "type": "Feature", "properties": { "Name": "Preston Hollow Elementary School", "description": null, "altitudeMode": "clampToGround", "WEBSITE": "<a target=\"_blank\" href=\"http:\/\/www.dallasisd.org\/prestonhollow\">http:\/\/www.dallasisd.org\/prestonhollow<\/a>", "CITY": "Dallas", "ZIP": "75230", "SCHOOLNAME": "Preston Hollow Elementary School", "TEA": "195", "LEVEL": "Elementary", "PHONE": "9727948500", "SLN": "195", "FID": "173", "ADDRESS": "6423 Walnut Hill Lane", "Field_1": "Preston Hollow Elementary School" }, "geometry": { "type": "Point", "coordinates": [ -96.795615928386482, 32.880662578296374 ] } },
{ "type": "Feature", "properties": { "Name": "Williams TAG Academy", "description": null, "altitudeMode": "clampToGround", "WEBSITE": "<a target=\"_blank\" href=\"http:\/\/www.dallasisd.org\/williams\">http:\/\/www.dallasisd.org\/williams<\/a>", "CITY": "Dallas", "ZIP": "75209", "SCHOOLNAME": "Williams TAG Academy", "TEA": "384", "LEVEL": "Magnet", "PHONE": "9727948700", "SLN": "384", "FID": "174", "ADDRESS": "4518 Pomona Rd.", "Field_1": "Williams TAG Academy" }, "geometry": { "type": "Point", "coordinates": [ -96.831230929487404, 32.854963280825878 ] } },
{ "type": "Feature", "properties": { "Name": "McShan Jr. Elementary School", "description": null, "altitudeMode": "clampToGround", "WEBSITE": "<a target=\"_blank\" href=\"http:\/\/www.dallasisd.org\/mcshan\">http:\/\/www.dallasisd.org\/mcshan<\/a>", "CITY": "Dallas", "ZIP": "75231", "SCHOOLNAME": "McShan Jr. Elementary School", "TEA": "286", "LEVEL": "Elementary", "PHONE": "9725023800", "SLN": "286", "FID": "176", "ADDRESS": "8307 Meadow Rd.", "Field_1": "McShan Jr. Elementary School" }, "geometry": { "type": "Point", "coordinates": [ -96.760993511228619, 32.888378815735088 ] } },
{ "type": "Feature", "properties": { "Name": "Stone Elementary School at Vickery Meadow", "description": null, "altitudeMode": "clampToGround", "WEBSITE": "<a target=\"_blank\" href=\"http:\/\/www.dallasisd.org\/jillstone\">http:\/\/www.dallasisd.org\/jillstone<\/a>", "CITY": "Dallas", "ZIP": "75231", "SCHOOLNAME": "Stone Elementary School at Vickery Meadow", "TEA": "141", "LEVEL": "Elementary", "PHONE": "9725027900", "SLN": "141", "FID": "177", "ADDRESS": "6606 Ridgecrest Rd.", "Field_1": "Stone Elementary School at Vickery Meadow" }, "geometry": { "type": "Point", "coordinates": [ -96.749500803488402, 32.865500990836857 ] } },
{ "type": "Feature", "properties": { "Name": "John Q. Adams Elementary School", "description": null, "altitudeMode": "clampToGround", "WEBSITE": "<a target=\"_blank\" href=\"http:\/\/www.dallasisd.org\/jqadams\">http:\/\/www.dallasisd.org\/jqadams<\/a>", "CITY": "Dallas", "ZIP": "75217", "SCHOOLNAME": "John Q. Adams Elementary School", "TEA": "101", "LEVEL": "Elementary", "PHONE": "9727941200", "SLN": "101", "FID": "178", "ADDRESS": "8239 Lake June Rd.", "Field_1": "John Q. Adams Elementary School" }, "geometry": { "type": "Point", "coordinates": [ -96.679791855366986, 32.735119664360397 ] } },
{ "type": "Feature", "properties": { "Name": "Anderson Elementary School", "description": null, "altitudeMode": "clampToGround", "WEBSITE": "<a target=\"_blank\" href=\"http:\/\/www.dallasisd.org\/anderson\">http:\/\/www.dallasisd.org\/anderson<\/a>", "CITY": "Dallas", "ZIP": "75217", "SCHOOLNAME": "Anderson Elementary School", "TEA": "104", "LEVEL": "Elementary", "PHONE": "9727496200", "SLN": "104", "FID": "179", "ADDRESS": "620 N. St. Augustine Dr.", "Field_1": "Anderson Elementary School" }, "geometry": { "type": "Point", "coordinates": [ -96.655600427430414, 32.72229807935279 ] } },
{ "type": "Feature", "properties": { "Name": "Blanton Elementary School", "description": null, "altitudeMode": "clampToGround", "WEBSITE": "<a target=\"_blank\" href=\"http:\/\/www.dallasisd.org\/blanton\">http:\/\/www.dallasisd.org\/blanton<\/a>", "CITY": "Dallas", "ZIP": "75227", "SCHOOLNAME": "Blanton Elementary School", "TEA": "110", "LEVEL": "Elementary", "PHONE": "9727941700", "SLN": "110", "FID": "180", "ADDRESS": "8915 Greenmound Ave.", "Field_1": "Blanton Elementary School" }, "geometry": { "type": "Point", "coordinates": [ -96.668698382355529, 32.751926063947877 ] } },
{ "type": "Feature", "properties": { "Name": "Cuellar Sr. Elementary School", "description": null, "altitudeMode": "clampToGround", "WEBSITE": "<a target=\"_blank\" href=\"http:\/\/www.dallasisd.org\/cuellar\">http:\/\/www.dallasisd.org\/cuellar<\/a>", "CITY": "Dallas", "ZIP": "75217", "SCHOOLNAME": "Cuellar Sr. Elementary School", "TEA": "276", "LEVEL": "Elementary", "PHONE": "9727496400", "SLN": "276", "FID": "181", "ADDRESS": "337 Pleasant Vista Dr.", "Field_1": "Cuellar Sr. Elementary School" }, "geometry": { "type": "Point", "coordinates": [ -96.643141157965204, 32.717053814341782 ] } },
{ "type": "Feature", "properties": { "Name": "Dorsey Elementary School", "description": null, "altitudeMode": "clampToGround", "WEBSITE": "<a target=\"_blank\" href=\"http:\/\/www.dallasisd.org\/dorsey\">http:\/\/www.dallasisd.org\/dorsey<\/a>", "CITY": "Dallas", "ZIP": "75217", "SCHOOLNAME": "Dorsey Elementary School", "TEA": "137", "LEVEL": "Elementary", "PHONE": "9727496300", "SLN": "137", "FID": "182", "ADDRESS": "133 N. St. Augustine", "Field_1": "Dorsey Elementary School" }, "geometry": { "type": "Point", "coordinates": [ -96.658193036830127, 32.713029704300403 ] } },
{ "type": "Feature", "properties": { "Name": "Hawthorne Elementary School", "description": null, "altitudeMode": "clampToGround", "WEBSITE": "<a target=\"_blank\" href=\"http:\/\/www.dallasisd.org\/hawthorne\">http:\/\/www.dallasisd.org\/hawthorne<\/a>", "CITY": "Dallas", "ZIP": "75217", "SCHOOLNAME": "Hawthorne Elementary School", "TEA": "156", "LEVEL": "Elementary", "PHONE": "9727494700", "SLN": "156", "FID": "183", "ADDRESS": "7800 Umphress Rd.", "Field_1": "Hawthorne Elementary School" }, "geometry": { "type": "Point", "coordinates": [ -96.688808129477863, 32.742131315359153 ] } },
{ "type": "Feature", "properties": { "Name": "Lagow Elementary School", "description": null, "altitudeMode": "clampToGround", "WEBSITE": "<a target=\"_blank\" href=\"http:\/\/www.dallasisd.org\/lagow\">http:\/\/www.dallasisd.org\/lagow<\/a>", "CITY": "Dallas", "ZIP": "75217", "SCHOOLNAME": "Lagow Elementary School", "TEA": "170", "LEVEL": "Elementary", "PHONE": "9727496600", "SLN": "170", "FID": "184", "ADDRESS": "637 Edgeworth Dr.", "Field_1": "Lagow Elementary School" }, "geometry": { "type": "Point", "coordinates": [ -96.636733555102268, 32.702438223009757 ] } },
{ "type": "Feature", "properties": { "Name": "School for the Talented and Gifted in Pleasant Grove", "description": null, "altitudeMode": "clampToGround", "WEBSITE": "<a target=\"_blank\" href=\"http:\/\/www.dallasisd.org\/pleasantgrovetag\">http:\/\/www.dallasisd.org\/pleasantgrovetag<\/a>", "CITY": "Dallas", "ZIP": "75217", "SCHOOLNAME": "School for the Talented and Gifted in Pleasant Grove", "TEA": "363", "LEVEL": "Magnet", "PHONE": "9729253335", "SLN": "363", "FID": "186", "ADDRESS": "9610 Bruton Rd", "Field_1": "School for the Talented and Gifted in Pleasant Grove" }, "geometry": { "type": "Point", "coordinates": [ -96.656108525099441, 32.747960934203277 ] } },
{ "type": "Feature", "properties": { "Name": "Runyon Elementary School", "description": null, "altitudeMode": "clampToGround", "WEBSITE": "<a target=\"_blank\" href=\"http:\/\/www.dallasisd.org\/runyon\">http:\/\/www.dallasisd.org\/runyon<\/a>", "CITY": "Dallas", "ZIP": "75217", "SCHOOLNAME": "Runyon Elementary School", "TEA": "237", "LEVEL": "Elementary", "PHONE": "9727496100", "SLN": "237", "FID": "187", "ADDRESS": "10750 Cradlerock Dr.", "Field_1": "Runyon Elementary School" }, "geometry": { "type": "Point", "coordinates": [ -96.641048147058299, 32.740427355763572 ] } },
{ "type": "Feature", "properties": { "Name": "Gonzalez Personalized Learning Academy", "description": null, "altitudeMode": "clampToGround", "WEBSITE": "<a target=\"_blank\" href=\"http:\/\/www.dallasisd.org\/gonzalez\">http:\/\/www.dallasisd.org\/gonzalez<\/a>", "CITY": "Dallas", "ZIP": "75217", "SCHOOLNAME": "Gonzalez Personalized Learning Academy", "TEA": "234", "LEVEL": "Elementary", "PHONE": "9725023300", "SLN": "234", "FID": "188", "ADDRESS": "6610 Lake June Rd.", "Field_1": "Gonzalez Personalized Learning Academy" }, "geometry": { "type": "Point", "coordinates": [ -96.707777518942066, 32.733978304058247 ] } },
{ "type": "Feature", "properties": { "Name": "Ireland Elementary School", "description": null, "altitudeMode": "clampToGround", "WEBSITE": "<a target=\"_blank\" href=\"http:\/\/www.dallasisd.org\/ireland\">http:\/\/www.dallasisd.org\/ireland<\/a>", "CITY": "Dallas", "ZIP": "75217", "SCHOOLNAME": "Ireland Elementary School", "TEA": "161", "LEVEL": "Elementary", "PHONE": "9727494900", "SLN": "161", "FID": "189", "ADDRESS": "1515 N. Jim Miller Rd.", "Field_1": "Ireland Elementary School" }, "geometry": { "type": "Point", "coordinates": [ -96.701406152466973, 32.739571409581757 ] } },
{ "type": "Feature", "properties": { "Name": "Urban Park Elementary School", "description": null, "altitudeMode": "clampToGround", "WEBSITE": "<a target=\"_blank\" href=\"http:\/\/www.dallasisd.org\/urbanpark\">http:\/\/www.dallasisd.org\/urbanpark<\/a>", "CITY": "Dallas", "ZIP": "75227", "SCHOOLNAME": "Urban Park Elementary School", "TEA": "222", "LEVEL": "Elementary", "PHONE": "9727941100", "SLN": "222", "FID": "191", "ADDRESS": "6901 Military Pkwy.", "Field_1": "Urban Park Elementary School" }, "geometry": { "type": "Point", "coordinates": [ -96.701660717808323, 32.773920941437368 ] } },
{ "type": "Feature", "properties": { "Name": "Richardson Elementary School", "description": null, "altitudeMode": "clampToGround", "WEBSITE": "<a target=\"_blank\" href=\"http:\/\/www.dallasisd.org\/richardson\">http:\/\/www.dallasisd.org\/richardson<\/a>", "CITY": "Dallas", "ZIP": "75217", "SCHOOLNAME": "Richardson Elementary School", "TEA": "303", "LEVEL": "Elementary", "PHONE": "9728928100", "SLN": "303", "FID": "192", "ADDRESS": "7203 Bruton Rd.", "Field_1": "Richardson Elementary School" }, "geometry": { "type": "Point", "coordinates": [ -96.694039992382002, 32.750414579767039 ] } },
{ "type": "Feature", "properties": { "Name": "Chapel Hill Elementary School", "description": null, "altitudeMode": "clampToGround", "WEBSITE": "<a target=\"_blank\" href=\"http:\/\/www.dallasisd.org\/chapelhill\">http:\/\/www.dallasisd.org\/chapelhill<\/a>", "CITY": "Dallas", "ZIP": "75234", "SCHOOLNAME": "Chapel Hill Elementary School", "TEA": "119", "LEVEL": "Elementary", "PHONE": "9727942400", "SLN": "119", "FID": "193", "ADDRESS": "12701 Templeton Trail", "Field_1": "Chapel Hill Elementary School" }, "geometry": { "type": "Point", "coordinates": [ -96.865801612800354, 32.918059663219907 ] } },
{ "type": "Feature", "properties": { "Name": "Junkins Elementary School", "description": null, "altitudeMode": "clampToGround", "WEBSITE": "<a target=\"_blank\" href=\"http:\/\/www.dallasisd.org\/junkins\">http:\/\/www.dallasisd.org\/junkins<\/a>", "CITY": "Carrollton", "ZIP": "75006", "SCHOOLNAME": "Junkins Elementary School", "TEA": "279", "LEVEL": "Elementary", "PHONE": "9725022400", "SLN": "279", "FID": "194", "ADDRESS": "2808 Running Duke Dr.", "Field_1": "Junkins Elementary School" }, "geometry": { "type": "Point", "coordinates": [ -96.856323241571573, 32.973792779230912 ] } },
{ "type": "Feature", "properties": { "Name": "Smith Elementary School", "description": null, "altitudeMode": "clampToGround", "WEBSITE": "<a target=\"_blank\" href=\"http:\/\/www.dallasisd.org\/lgsmith\">http:\/\/www.dallasisd.org\/lgsmith<\/a>", "CITY": "Mesquite", "ZIP": "75150", "SCHOOLNAME": "Smith Elementary School", "TEA": "154", "LEVEL": "Elementary", "PHONE": "9725024800", "SLN": "154", "FID": "196", "ADDRESS": "5229 Gus Thomasson Rd.", "Field_1": "Smith Elementary School" }, "geometry": { "type": "Point", "coordinates": [ -96.658842268099121, 32.832818419674318 ] } },
{ "type": "Feature", "properties": { "Name": "Central Elementary School", "description": null, "altitudeMode": "clampToGround", "WEBSITE": "<a target=\"_blank\" href=\"http:\/\/www.dallasisd.org\/central\">http:\/\/www.dallasisd.org\/central<\/a>", "CITY": "Seagoville", "ZIP": "75159", "SCHOOLNAME": "Central Elementary School", "TEA": "126", "LEVEL": "Elementary", "PHONE": "9727496800", "SLN": "126", "FID": "197", "ADDRESS": "902 Shady Lane", "Field_1": "Central Elementary School" }, "geometry": { "type": "Point", "coordinates": [ -96.537631002094088, 32.658205505134752 ] } },
{ "type": "Feature", "properties": { "Name": "Seagoville Elementary School", "description": null, "altitudeMode": "clampToGround", "WEBSITE": "<a target=\"_blank\" href=\"http:\/\/www.dallasisd.org\/seagovillees\">http:\/\/www.dallasisd.org\/seagovillees<\/a>", "CITY": "Seagoville", "ZIP": "75159", "SCHOOLNAME": "Seagoville Elementary School", "TEA": "208", "LEVEL": "Elementary", "PHONE": "9728927900", "SLN": "208", "FID": "198", "ADDRESS": "304 N. Kaufman St.", "Field_1": "Seagoville Elementary School" }, "geometry": { "type": "Point", "coordinates": [ -96.54014512667024, 32.640831159420188 ] } },
{ "type": "Feature", "properties": { "Name": "Seagoville North Elementary", "description": null, "altitudeMode": "clampToGround", "WEBSITE": "<a target=\"_blank\" href=\"http:\/\/www.dallasisd.org\/seagovillenorth\">http:\/\/www.dallasisd.org\/seagovillenorth<\/a>", "CITY": "Seagoville", "ZIP": "75159", "SCHOOLNAME": "Seagoville North Elementary", "TEA": "244", "LEVEL": "Elementary", "PHONE": "9728925300", "SLN": "244", "FID": "199", "ADDRESS": "1906 Seagoville Rd.", "Field_1": "Seagoville North Elementary" }, "geometry": { "type": "Point", "coordinates": [ -96.556553014492209, 32.663761572859563 ] } },
{ "type": "Feature", "properties": { "Name": "Wilmer Early Childhood Center", "description": null, "altitudeMode": "clampToGround", "WEBSITE": "<a target=\"_blank\" href=\"http:\/\/www.dallasisd.org\/wilmerec\">http:\/\/www.dallasisd.org\/wilmerec<\/a>", "CITY": "Wilmer", "ZIP": "75172", "SCHOOLNAME": "Wilmer Early Childhood Center", "TEA": "301", "LEVEL": "Magnet", "PHONE": "9729252600", "SLN": "301", "FID": "200", "ADDRESS": "211 Walnut St.", "Field_1": "Wilmer Early Childhood Center" }, "geometry": { "type": "Point", "coordinates": [ -96.687503630478574, 32.593028737022273 ] } },
{ "type": "Feature", "properties": { "Name": "Lanier Elementary School", "description": null, "altitudeMode": "clampToGround", "WEBSITE": "<a target=\"_blank\" href=\"http:\/\/www.dallasisd.org\/lanier\">http:\/\/www.dallasisd.org\/lanier<\/a>", "CITY": "Dallas", "ZIP": "75208", "SCHOOLNAME": "Lanier Elementary School", "TEA": "173", "LEVEL": "Elementary", "PHONE": "9727944400", "SLN": "173", "FID": "201", "ADDRESS": "1400 Walmsley Ave.", "Field_1": "Lanier Elementary School" }, "geometry": { "type": "Point", "coordinates": [ -96.844099981404597, 32.768918749233791 ] } },
{ "type": "Feature", "properties": { "Name": "Polk Elementary School", "description": null, "altitudeMode": "clampToGround", "WEBSITE": "<a target=\"_blank\" href=\"http:\/\/www.dallasisd.org\/polk\">http:\/\/www.dallasisd.org\/polk<\/a>", "CITY": "Dallas", "ZIP": "75209", "SCHOOLNAME": "Polk Elementary School", "TEA": "194", "LEVEL": "Elementary", "PHONE": "9727948900", "SLN": "194", "FID": "202", "ADDRESS": "6911 Victoria Ave.", "Field_1": "Polk Elementary School" }, "geometry": { "type": "Point", "coordinates": [ -96.831691403831556, 32.84226278268671 ] } },
{ "type": "Feature", "properties": { "Name": "Twain School for the Talented and Gifted", "description": null, "altitudeMode": "clampToGround", "WEBSITE": "<a target=\"_blank\" href=\"http:\/\/www.dallasisd.org\/twain\">http:\/\/www.dallasisd.org\/twain<\/a>", "CITY": "Dallas", "ZIP": "75232", "SCHOOLNAME": "Twain School for the Talented and Gifted", "TEA": "220", "LEVEL": "Magnet", "PHONE": "9727493000", "SLN": "220", "FID": "203", "ADDRESS": "724 Green Cove Lane", "Field_1": "Twain School for the Talented and Gifted" }, "geometry": { "type": "Point", "coordinates": [ -96.833408364957933, 32.683978880845288 ] } },
{ "type": "Feature", "properties": { "Name": "May Elementary School", "description": null, "altitudeMode": "clampToGround", "WEBSITE": "Http:\/\/www.dallasisd.org\/joemay", "CITY": "Dallas", "ZIP": "75220", "SCHOOLNAME": "May Elementary School", "TEA": "107", "LEVEL": "Elementary", "PHONE": "9729253700", "SLN": "107", "FID": "204", "ADDRESS": "9818 Brockbank Dr.", "Field_1": "May Elementary School" }, "geometry": { "type": "Point", "coordinates": [ -96.875027508879299, 32.871696373728042 ] } },
{ "type": "Feature", "properties": { "Name": "Roosevelt High School", "description": null, "altitudeMode": "clampToGround", "WEBSITE": "<a target=\"_blank\" href=\"http:\/\/www.dallasisd.org\/roosevelt\">http:\/\/www.dallasisd.org\/roosevelt<\/a>", "CITY": "Dallas", "ZIP": "75203", "SCHOOLNAME": "Roosevelt High School", "TEA": "13", "LEVEL": "High", "PHONE": "9729256800", "SLN": "13", "FID": "205", "ADDRESS": "525 Bonnie View Rd.", "Field_1": "Roosevelt High School" }, "geometry": { "type": "Point", "coordinates": [ -96.796723328410764, 32.742294031866201 ] } },
{ "type": "Feature", "properties": { "Name": "South Oak Cliff High School", "description": null, "altitudeMode": "clampToGround", "WEBSITE": "<a target=\"_blank\" href=\"http:\/\/www.dallasisd.org\/soc\">http:\/\/www.dallasisd.org\/soc<\/a>", "CITY": "Dallas", "ZIP": "75216", "SCHOOLNAME": "South Oak Cliff High School", "TEA": "16", "LEVEL": "High", "PHONE": "2149327000", "SLN": "16", "FID": "206", "ADDRESS": "3601 S. Marsalis Ave.", "Field_1": "South Oak Cliff High School" }, "geometry": { "type": "Point", "coordinates": [ -96.816249671578746, 32.699563707605797 ] } },
{ "type": "Feature", "properties": { "Name": "Manns Elementary DAEP", "description": null, "altitudeMode": "clampToGround", "WEBSITE": "<a target=\"_blank\" href=\"http:\/\/www.dallasisd.org\/daep\">http:\/\/www.dallasisd.org\/daep<\/a>", "CITY": "Dallas", "ZIP": "75224", "SCHOOLNAME": "Manns Elementary DAEP", "TEA": "241", "LEVEL": "Alternative", "PHONE": "9728928000", "SLN": "241", "FID": "207", "ADDRESS": "3313 S. Beckley Ave.", "Field_1": "Manns Elementary DAEP" }, "geometry": { "type": "Point", "coordinates": [ -96.824587027145057, 32.704531188089248 ] } },
{ "type": "Feature", "properties": { "Name": "Manns Middle School for DAEP", "description": null, "altitudeMode": "clampToGround", "WEBSITE": "<a target=\"_blank\" href=\"http:\/\/www.dallasisd.org\/lacey\">http:\/\/www.dallasisd.org\/lacey<\/a>", "CITY": "Dallas", "ZIP": "75224", "SCHOOLNAME": "Manns Middle School for DAEP", "TEA": "11", "LEVEL": "Alternative", "PHONE": "9729257060", "SLN": "11", "FID": "208", "ADDRESS": "3313 S. Beckley Ave.", "Field_1": "Manns Middle School for DAEP" }, "geometry": { "type": "Point", "coordinates": [ -96.824587027145057, 32.704531188089248 ] } },
{ "type": "Feature", "properties": { "Name": "Manns High School for DAEP", "description": null, "altitudeMode": "clampToGround", "WEBSITE": "<a target=\"_blank\" href=\"http:\/\/www.dallasisd.org\/scgc\">http:\/\/www.dallasisd.org\/scgc<\/a>", "CITY": "Dallas", "ZIP": "75224", "SCHOOLNAME": "Manns High School for DAEP", "TEA": "29", "LEVEL": "Alternative", "PHONE": "9729257000", "SLN": "29", "FID": "209", "ADDRESS": "3313 S. Beckley Ave.", "Field_1": "Manns High School for DAEP" }, "geometry": { "type": "Point", "coordinates": [ -96.824587027145057, 32.704531188089248 ] } },
{ "type": "Feature", "properties": { "Name": "Ewell Townview Center", "description": null, "altitudeMode": "clampToGround", "WEBSITE": "", "CITY": "Dallas", "ZIP": "75203", "SCHOOLNAME": "Ewell Townview Center", "TEA": "41", "LEVEL": "Magnet", "PHONE": "9729255900", "SLN": "41", "FID": "210", "ADDRESS": "1201 E. Eighth St.", "Field_1": "Ewell Townview Center" }, "geometry": { "type": "Point", "coordinates": [ -96.80717838585791, 32.752563658022282 ] } },
{ "type": "Feature", "properties": { "Name": "Jefferson High School", "description": null, "altitudeMode": "clampToGround", "WEBSITE": "<a target=\"_blank\" href=\"http:\/\/www.dallasisd.org\/tjefferson\">http:\/\/www.dallasisd.org\/tjefferson<\/a>", "CITY": "Dallas", "ZIP": "75229", "SCHOOLNAME": "Jefferson High School", "TEA": "7", "LEVEL": "High", "PHONE": "9725027300", "SLN": "7", "FID": "211", "ADDRESS": "4001 Walnut Hill Lane", "Field_1": "Jefferson High School" }, "geometry": { "type": "Point", "coordinates": [ -96.844957821379211, 32.881911931843227 ] } },
{ "type": "Feature", "properties": { "Name": "White High School", "description": null, "altitudeMode": "clampToGround", "WEBSITE": "<a target=\"_blank\" href=\"http:\/\/www.dallasisd.org\/wtwhite\">http:\/\/www.dallasisd.org\/wtwhite<\/a>", "CITY": "Dallas", "ZIP": "75244", "SCHOOLNAME": "White High School", "TEA": "21", "LEVEL": "High", "PHONE": "9725026200", "SLN": "21", "FID": "212", "ADDRESS": "4505 Ridgeside Dr.", "Field_1": "White High School" }, "geometry": { "type": "Point", "coordinates": [ -96.831677704018432, 32.916863611079059 ] } },
{ "type": "Feature", "properties": { "Name": "Longfellow Career Exploration Academy", "description": null, "altitudeMode": "clampToGround", "WEBSITE": "<a target=\"_blank\" href=\"http:\/\/www.dallasisd.org\/longfellow\">http:\/\/www.dallasisd.org\/longfellow<\/a>", "CITY": "Dallas", "ZIP": "75209", "SCHOOLNAME": "Longfellow Career Exploration Academy", "TEA": "73", "LEVEL": "Magnet", "PHONE": "9727495400", "SLN": "73", "FID": "213", "ADDRESS": "5314 Boaz St.", "Field_1": "Longfellow Career Exploration Academy" }, "geometry": { "type": "Point", "coordinates": [ -96.820196069968574, 32.848298654518189 ] } },
{ "type": "Feature", "properties": { "Name": "Conrad High School", "description": null, "altitudeMode": "clampToGround", "WEBSITE": "<a target=\"_blank\" href=\"http:\/\/www.dallasisd.org\/conrad\">http:\/\/www.dallasisd.org\/conrad<\/a>", "CITY": "Dallas", "ZIP": "75231", "SCHOOLNAME": "Conrad High School", "TEA": "28", "LEVEL": "High", "PHONE": "9725022300", "SLN": "28", "FID": "214", "ADDRESS": "7502 Fair Oaks Ave.", "Field_1": "Conrad High School" }, "geometry": { "type": "Point", "coordinates": [ -96.751912113574491, 32.876388361439233 ] } },
{ "type": "Feature", "properties": { "Name": "Samuell High School", "description": null, "altitudeMode": "clampToGround", "WEBSITE": "<a target=\"_blank\" href=\"http:\/\/www.dallasisd.org\/samuell\">http:\/\/www.dallasisd.org\/samuell<\/a>", "CITY": "Dallas", "ZIP": "75217", "SCHOOLNAME": "Samuell High School", "TEA": "14", "LEVEL": "High", "PHONE": "9728925100", "SLN": "14", "FID": "215", "ADDRESS": "8928 Palisade Dr.", "Field_1": "Samuell High School" }, "geometry": { "type": "Point", "coordinates": [ -96.667667912818658, 32.745324973880031 ] } },
{ "type": "Feature", "properties": { "Name": "Spruce High School", "description": null, "altitudeMode": "clampToGround", "WEBSITE": "<a target=\"_blank\" href=\"http:\/\/www.dallasisd.org\/spruce\">http:\/\/www.dallasisd.org\/spruce<\/a>", "CITY": "Dallas", "ZIP": "75217", "SCHOOLNAME": "Spruce High School", "TEA": "17", "LEVEL": "High", "PHONE": "9728925500", "SLN": "17", "FID": "216", "ADDRESS": "9733 Old Seagoville Rd.", "Field_1": "Spruce High School" }, "geometry": { "type": "Point", "coordinates": [ -96.653859404524994, 32.710510287554811 ] } },
{ "type": "Feature", "properties": { "Name": "IDEA at Fannin PLC High School", "description": null, "altitudeMode": "clampToGround", "WEBSITE": "<a target=\"_blank\" href=\"http:\/\/www.dallasisd.org\/idea\">http:\/\/www.dallasisd.org\/idea<\/a>", "CITY": "Dallas", "ZIP": "75204", "SCHOOLNAME": "IDEA at Fannin PLC High School", "TEA": "382", "LEVEL": "Choice", "PHONE": "9727946800", "SLN": "382", "FID": "217", "ADDRESS": "4800 Ross Ave.", "Field_1": "IDEA at Fannin PLC High School" }, "geometry": { "type": "Point", "coordinates": [ -96.776097173504951, 32.805402662197579 ] } },
{ "type": "Feature", "properties": { "Name": "Harllee EC Center", "description": null, "altitudeMode": "clampToGround", "WEBSITE": "<a target=\"_blank\" href=\"http:\/\/www.dallasisd.org\/harllee\">http:\/\/www.dallasisd.org\/harllee<\/a>", "CITY": "Dallas", "ZIP": "75203", "SCHOOLNAME": "Harllee EC Center", "TEA": "285", "LEVEL": "Magnet", "PHONE": "9729256500", "SLN": "285", "FID": "218", "ADDRESS": "1216 E. Eighth St.", "Field_1": "Harllee EC Center" }, "geometry": { "type": "Point", "coordinates": [ -96.805878243457158, 32.750435768592773 ] } },
{ "type": "Feature", "properties": { "Name": "Hulcy STEAM Middle School", "description": null, "altitudeMode": "clampToGround", "WEBSITE": "<a target=\"_blank\" href=\"http:\/\/www.dallasisd.org\/steam\">http:\/\/www.dallasisd.org\/steam<\/a>", "CITY": "Dallas", "ZIP": "75232", "SCHOOLNAME": "Hulcy STEAM Middle School", "TEA": "360", "LEVEL": "Choice", "PHONE": "2149327400", "SLN": "360", "FID": "219", "ADDRESS": "9338 S. Polk St.", "Field_1": "Hulcy STEAM Middle School" }, "geometry": { "type": "Point", "coordinates": [ -96.847059344279117, 32.638583674115623 ] } },
{ "type": "Feature", "properties": { "Name": "Lincoln High School", "description": null, "altitudeMode": "clampToGround", "WEBSITE": "<a target=\"_blank\" href=\"http:\/\/www.dallasisd.org\/lincoln\">http:\/\/www.dallasisd.org\/lincoln<\/a>", "CITY": "Dallas", "ZIP": "75215", "SCHOOLNAME": "Lincoln High School", "TEA": "9", "LEVEL": "High", "PHONE": "9729257600", "SLN": "9", "FID": "221", "ADDRESS": "2826 Hatcher St.", "Field_1": "Lincoln High School" }, "geometry": { "type": "Point", "coordinates": [ -96.749706413648056, 32.754808443050187 ] } },
{ "type": "Feature", "properties": { "Name": "Solar Preparatory STEAM School for Girls", "description": null, "altitudeMode": "clampToGround", "WEBSITE": "<a target=\"_blank\" href=\"http:\/\/www.dallasisd.org\/solarprep\">http:\/\/www.dallasisd.org\/solarprep<\/a>", "CITY": "Dallas", "ZIP": "75206", "SCHOOLNAME": "Solar Preparatory STEAM School for Girls", "TEA": "306", "LEVEL": "Choice", "PHONE": "9727494300", "SLN": "306", "FID": "222", "ADDRESS": "2617 N. Henderson Ave.", "Field_1": "Solar Preparatory STEAM School for Girls" }, "geometry": { "type": "Point", "coordinates": [ -96.781326524817786, 32.816773825652611 ] } },
{ "type": "Feature", "properties": { "Name": "Holmes Humanities\/Communications Academy", "description": null, "altitudeMode": "clampToGround", "WEBSITE": "<a target=\"_blank\" href=\"http:\/\/www.dallasisd.org\/owholmes\">http:\/\/www.dallasisd.org\/owholmes<\/a>", "CITY": "Dallas", "ZIP": "75216", "SCHOOLNAME": "Holmes Humanities\/Communications Academy", "TEA": "802", "LEVEL": "Magnet", "PHONE": "9729258500", "SLN": "802", "FID": "223", "ADDRESS": "2001 E. Kiest Blvd.", "Field_1": "Holmes Humanities\/Communications Academy" }, "geometry": { "type": "Point", "coordinates": [ -96.79097588124381, 32.716301999566852 ] } },
{ "type": "Feature", "properties": { "Name": "Starks Math, Science, and Technology Vanguard Elementary School", "description": null, "altitudeMode": "clampToGround", "WEBSITE": "<a target=\"_blank\" href=\"http:\/\/www.dallasisd.org\/starks\">http:\/\/www.dallasisd.org\/starks<\/a>", "CITY": "Dallas", "ZIP": "75216", "SCHOOLNAME": "Starks Math, Science, and Technology Vanguard Elementary School", "TEA": "830", "LEVEL": "Magnet", "PHONE": "9725028800", "SLN": "830", "FID": "224", "ADDRESS": "3033 Tips Blvd.", "Field_1": "Starks Math, Science, and Technology Vanguard Elementary School" }, "geometry": { "type": "Point", "coordinates": [ -96.77410576432662, 32.721772035583108 ] } },
{ "type": "Feature", "properties": { "Name": "School of Science and Engineering", "description": null, "altitudeMode": "clampToGround", "WEBSITE": "<a target=\"_blank\" href=\"http:\/\/www.dallasisd.org\/semagnet\">http:\/\/www.dallasisd.org\/semagnet<\/a>", "CITY": "Dallas", "ZIP": "75203", "SCHOOLNAME": "School of Science and Engineering", "TEA": "26", "LEVEL": "Magnet", "PHONE": "9729255900", "SLN": "26", "FID": "226", "ADDRESS": "1201 E. Eighth St.", "Field_1": "School of Science and Engineering" }, "geometry": { "type": "Point", "coordinates": [ -96.80717838585791, 32.752563658022282 ] } },
{ "type": "Feature", "properties": { "Name": "School of Business and Management", "description": null, "altitudeMode": "clampToGround", "WEBSITE": "<a target=\"_blank\" href=\"http:\/\/www.dallasisd.org\/businessmagnet\">http:\/\/www.dallasisd.org\/businessmagnet<\/a>", "CITY": "Dallas", "ZIP": "75203", "SCHOOLNAME": "School of Business and Management", "TEA": "33", "LEVEL": "Magnet", "PHONE": "9729255900", "SLN": "33", "FID": "227", "ADDRESS": "1201 E. Eighth St.", "Field_1": "School of Business and Management" }, "geometry": { "type": "Point", "coordinates": [ -96.80717838585791, 32.752563658022282 ] } },
{ "type": "Feature", "properties": { "Name": "School of Health Professions", "description": null, "altitudeMode": "clampToGround", "WEBSITE": "<a target=\"_blank\" href=\"http:\/\/www.dallasisd.org\/healthmagnet\">http:\/\/www.dallasisd.org\/healthmagnet<\/a>", "CITY": "Dallas", "ZIP": "75203", "SCHOOLNAME": "School of Health Professions", "TEA": "36", "LEVEL": "Magnet", "PHONE": "9729255900", "SLN": "36", "FID": "228", "ADDRESS": "1201 E. Eighth St.", "Field_1": "School of Health Professions" }, "geometry": { "type": "Point", "coordinates": [ -96.80717838585791, 32.752563658022282 ] } },
{ "type": "Feature", "properties": { "Name": "Rosie M. Collins Sorrells School of Education and Socal Services", "description": null, "altitudeMode": "clampToGround", "WEBSITE": "<a target=\"_blank\" href=\"http:\/\/www.dallasisd.org\/essm\">http:\/\/www.dallasisd.org\/essm<\/a>", "CITY": "Dallas", "ZIP": "75203", "SCHOOLNAME": "Rosie M. Collins Sorrells School of Education and Socal Services", "TEA": "37", "LEVEL": "Magnet", "PHONE": "9729255900", "SLN": "37", "FID": "229", "ADDRESS": "1201 E. Eighth St.", "Field_1": "Rosie M. Collins Sorrells School of Education and Socal Services" }, "geometry": { "type": "Point", "coordinates": [ -96.80717838585791, 32.752563658022282 ] } },
{ "type": "Feature", "properties": { "Name": "School for the Talented and Gifted", "description": null, "altitudeMode": "clampToGround", "WEBSITE": "<a target=\"_blank\" href=\"http:\/\/www.dallasisd.org\/tagmagnet\">http:\/\/www.dallasisd.org\/tagmagnet<\/a>", "CITY": "Dallas", "ZIP": "75203", "SCHOOLNAME": "School for the Talented and Gifted", "TEA": "39", "LEVEL": "Magnet", "PHONE": "9729255900", "SLN": "39", "FID": "231", "ADDRESS": "1201 E. Eighth St.", "Field_1": "School for the Talented and Gifted" }, "geometry": { "type": "Point", "coordinates": [ -96.80717838585791, 32.752563658022282 ] } },
{ "type": "Feature", "properties": { "Name": "Sanger Preparatory School", "description": null, "altitudeMode": "clampToGround", "WEBSITE": "<a target=\"_blank\" href=\"http:\/\/www.dallasisd.org\/sanger\">http:\/\/www.dallasisd.org\/sanger<\/a>", "CITY": "Dallas", "ZIP": "75218", "SCHOOLNAME": "Sanger Preparatory School", "TEA": "206", "LEVEL": "Elementary", "PHONE": "9727497600", "SLN": "206", "FID": "232", "ADDRESS": "8410 San Leandro Dr.", "Field_1": "Sanger Preparatory School" }, "geometry": { "type": "Point", "coordinates": [ -96.709439562667725, 32.813465545125673 ] } },
{ "type": "Feature", "properties": { "Name": "Starks Elementary School", "description": null, "altitudeMode": "clampToGround", "WEBSITE": "<a target=\"_blank\" href=\"http:\/\/www.dallasisd.org\/starks\">http:\/\/www.dallasisd.org\/starks<\/a>", "CITY": "Dallas", "ZIP": "75216", "SCHOOLNAME": "Starks Elementary School", "TEA": "263", "LEVEL": "Elementary", "PHONE": "9725028800", "SLN": "263", "FID": "233", "ADDRESS": "3033 Tips Blvd.", "Field_1": "Starks Elementary School" }, "geometry": { "type": "Point", "coordinates": [ -96.77410576432662, 32.721772035583108 ] } },
{ "type": "Feature", "properties": { "Name": "Holmes Middle School", "description": null, "altitudeMode": "clampToGround", "WEBSITE": "<a target=\"_blank\" href=\"http:\/\/www.dallasisd.org\/owholmes\">http:\/\/www.dallasisd.org\/owholmes<\/a>", "CITY": "Dallas", "ZIP": "75216", "SCHOOLNAME": "Holmes Middle School", "TEA": "51", "LEVEL": "Middle", "PHONE": "9729258500", "SLN": "51", "FID": "234", "ADDRESS": "2001 E. Kiest Blvd.", "Field_1": "Holmes Middle School" }, "geometry": { "type": "Point", "coordinates": [ -96.79097588124381, 32.716301999566852 ] } },
{ "type": "Feature", "properties": { "Name": "CityLab High School", "description": null, "altitudeMode": "clampToGround", "WEBSITE": "<a target=\"_blank\" href=\"http:\/\/www.dallasisd.org\/citylabhs\">http:\/\/www.dallasisd.org\/citylabhs<\/a>", "CITY": "Dallas", "ZIP": "75201", "SCHOOLNAME": "CityLab High School", "TEA": "383", "LEVEL": "Choice", "PHONE": "9727492702", "SLN": "383", "FID": "235", "ADDRESS": "912 S. Ervay St.", "Field_1": "CityLab High School" }, "geometry": { "type": "Point", "coordinates": [ -96.793416726595368, 32.775178629897347 ] } },
{ "type": "Feature", "properties": { "Name": "Pleasant Grove Elementary School", "description": null, "altitudeMode": "clampToGround", "WEBSITE": "<a target=\"_blank\" href=\"http:\/\/www.dallasisd.org\/pleasantgrove\">http:\/\/www.dallasisd.org\/pleasantgrove<\/a>", "CITY": "Dallas", "ZIP": "75217", "SCHOOLNAME": "Pleasant Grove Elementary School", "TEA": "273", "LEVEL": "Elementary", "PHONE": "9728925000", "SLN": "273", "FID": "236", "ADDRESS": "1614 N. St. Augustine Rd.", "Field_1": "Pleasant Grove Elementary School" }, "geometry": { "type": "Point", "coordinates": [ -96.655670362149593, 32.738468383008119 ] } },
{ "type": "Feature", "properties": { "Name": "Arlington Park Early Childhood Center", "description": null, "altitudeMode": "clampToGround", "WEBSITE": "<a target=\"_blank\" href=\"http:\/\/www.dallasisd.org\/arlingtonparkec\">http:\/\/www.dallasisd.org\/arlingtonparkec<\/a>", "CITY": "Dallas", "ZIP": "75235", "SCHOOLNAME": "Arlington Park Early Childhood Center", "TEA": "300", "LEVEL": "Magnet", "PHONE": "", "SLN": "300", "FID": "237", "ADDRESS": "5606 Wayside Dr.", "Field_1": "Arlington Park Early Childhood Center" }, "geometry": { "type": "Point", "coordinates": [ -96.85253091506614, 32.815286373041722 ] } },
{ "type": "Feature", "properties": { "Name": "North Lake Collegiate Academy", "description": null, "altitudeMode": "clampToGround", "WEBSITE": "<a target=\"_blank\" href=\"https:\/\/www.dallasisd.org\/northlakecollegiate\">https:\/\/www.dallasisd.org\/northlakecollegiate<\/a>", "CITY": "Irving", "ZIP": "75060", "SCHOOLNAME": "North Lake Collegiate Academy", "TEA": "387", "LEVEL": "Magnet", "PHONE": "9729255481", "SLN": "387", "FID": "238", "ADDRESS": "1081 W. Shady Grove Rd.", "Field_1": "North Lake Collegiate Academy" }, "geometry": { "type": "Point", "coordinates": [ -96.957894660990036, 32.802048885696401 ] } },
{ "type": "Feature", "properties": { "Name": "Career Institutes South", "description": null, "altitudeMode": "clampToGround", "WEBSITE": "", "CITY": "Dallas", "ZIP": "75224", "SCHOOLNAME": "Career Institutes South", "TEA": "0", "LEVEL": "Alternative", "PHONE": "", "SLN": "0", "FID": "239", "ADDRESS": "4949 Village Fair Dr.", "Field_1": "Career Institutes South" }, "geometry": { "type": "Point", "coordinates": [ -96.826086149231699, 32.692380911461058 ] } },
{ "type": "Feature", "properties": { "Name": "Franklin International Exploratory Academy Middle School", "description": null, "altitudeMode": "clampToGround", "WEBSITE": "<a target=\"_blank\" href=\"http:\/\/www.dallasisd.org\/franklin\">http:\/\/www.dallasisd.org\/franklin<\/a>", "CITY": "Dallas", "ZIP": "75230", "SCHOOLNAME": "Franklin International Exploratory Academy Middle School", "TEA": "47", "LEVEL": "Middle", "PHONE": "9725027100", "SLN": "47", "FID": "0", "ADDRESS": "6920 Meadow Rd.", "Field_1": "Franklin International Exploratory Academy Middle School" }, "geometry": { "type": "Point", "coordinates": [ -96.784551696599905, 32.885545323260011 ] } },
{ "type": "Feature", "properties": { "Name": "Mockingbird Elementary School", "description": null, "altitudeMode": "clampToGround", "WEBSITE": "<a target=\"_blank\" href=\"http:\/\/www.dallasisd.org\/mockingbird\">http:\/\/www.dallasisd.org\/mockingbird<\/a>", "CITY": "Dallas", "ZIP": "75206", "SCHOOLNAME": "Mockingbird Elementary School", "TEA": "162", "LEVEL": "Elementary", "PHONE": "9727497200", "SLN": "162", "FID": "45", "ADDRESS": "5828 E. Mockingbird Lane", "Field_1": "Mockingbird Elementary School" }, "geometry": { "type": "Point", "coordinates": [ -96.7673478669752, 32.835628876511741 ] } },
{ "type": "Feature", "properties": { "Name": "Ignite Middle School", "description": null, "altitudeMode": "clampToGround", "WEBSITE": "<a target=\"_blank\" href=\"http:\/\/www.dallasisd.org\/jwray\">http:\/\/www.dallasisd.org\/jwray<\/a>", "CITY": "Dallas", "ZIP": "75204", "SCHOOLNAME": "Ignite Middle School", "TEA": "362", "LEVEL": "Choice", "PHONE": "9727947700", "SLN": "362", "FID": "50", "ADDRESS": "2211 Caddo St.", "Field_1": "Ignite Middle School" }, "geometry": { "type": "Point", "coordinates": [ -96.789335207207827, 32.801528667572533 ] } },
{ "type": "Feature", "properties": { "Name": "Solar Prepratory School for Boys", "description": null, "altitudeMode": "clampToGround", "WEBSITE": "<a target=\"_blank\" href=\"http:\/\/www.dallasisd.org\/kennedy\">http:\/\/www.dallasisd.org\/kennedy<\/a>", "CITY": "Dallas", "ZIP": "75206", "SCHOOLNAME": "Solar Prepratory School for Boys", "TEA": "386", "LEVEL": "Choice", "PHONE": "9727947100", "SLN": "386", "FID": "55", "ADDRESS": "1802 Moser Ave.", "Field_1": "Solar Prepratory School for Boys" }, "geometry": { "type": "Point", "coordinates": [ -96.774474453096133, 32.810103331234053 ] } },
{ "type": "Feature", "properties": { "Name": "Salazar Elementary School", "description": null, "altitudeMode": "clampToGround", "WEBSITE": "<a target=\"_blank\" href=\"http:\/\/www.dallasisd.org\/salazar\">http:\/\/www.dallasisd.org\/salazar<\/a>", "CITY": "Dallas", "ZIP": "75211", "SCHOOLNAME": "Salazar Elementary School", "TEA": "239", "LEVEL": "Elementary", "PHONE": "9725021800", "SLN": "239", "FID": "85", "ADDRESS": "1120 S. Ravinia Dr.", "Field_1": "Salazar Elementary School" }, "geometry": { "type": "Point", "coordinates": [ -96.868033222650993, 32.732811284832479 ] } },
{ "type": "Feature", "properties": { "Name": "Reinhardt Elementary School", "description": null, "altitudeMode": "clampToGround", "WEBSITE": "<a target=\"_blank\" href=\"http:\/\/www.dallasisd.org\/reinhardt\">http:\/\/www.dallasisd.org\/reinhardt<\/a>", "CITY": "Dallas", "ZIP": "75218", "SCHOOLNAME": "Reinhardt Elementary School", "TEA": "199", "LEVEL": "Elementary", "PHONE": "9727497900", "SLN": "199", "FID": "95", "ADDRESS": "10122 Losa Dr.", "Field_1": "Reinhardt Elementary School" }, "geometry": { "type": "Point", "coordinates": [ -96.692203653062066, 32.837018968565353 ] } },
{ "type": "Feature", "properties": { "Name": "Rangel Young Women's Leadership School", "description": null, "altitudeMode": "clampToGround", "WEBSITE": "<a target=\"_blank\" href=\"http:\/\/www.dallasisd.org\/rangel\">http:\/\/www.dallasisd.org\/rangel<\/a>", "CITY": "Dallas", "ZIP": "75210", "SCHOOLNAME": "Rangel Young Women's Leadership School", "TEA": "35", "LEVEL": "Magnet", "PHONE": "9727495200", "SLN": "35", "FID": "120", "ADDRESS": "1718 R.B. Cullum Blvd.", "Field_1": "Rangel Young Women's Leadership School" }, "geometry": { "type": "Point", "coordinates": [ -96.760289786375481, 32.773992035358688 ] } },
{ "type": "Feature", "properties": { "Name": "Washington High School for the Performing and Visual Arts", "description": null, "altitudeMode": "clampToGround", "WEBSITE": "<a target=\"_blank\" href=\"http:\/\/www.dallasisd.org\/bookert\">http:\/\/www.dallasisd.org\/bookert<\/a>", "CITY": "Dallas", "ZIP": "75201", "SCHOOLNAME": "Washington High School for the Performing and Visual Arts", "TEA": "34", "LEVEL": "Magnet", "PHONE": "9729251200", "SLN": "34", "FID": "125", "ADDRESS": "2501 Flora St.", "Field_1": "Washington High School for the Performing and Visual Arts" }, "geometry": { "type": "Point", "coordinates": [ -96.797012206955046, 32.79166538778005 ] } },
{ "type": "Feature", "properties": { "Name": "Storey Middle School", "description": null, "altitudeMode": "clampToGround", "WEBSITE": "<a target=\"_blank\" href=\"http:\/\/www.dallasisd.org\/storey\">http:\/\/www.dallasisd.org\/storey<\/a>", "CITY": "Dallas", "ZIP": "75216", "SCHOOLNAME": "Storey Middle School", "TEA": "60", "LEVEL": "Middle", "PHONE": "9729258700", "SLN": "60", "FID": "145", "ADDRESS": "3000 Maryland Ave.", "Field_1": "Storey Middle School" }, "geometry": { "type": "Point", "coordinates": [ -96.812091658216062, 32.708561738592088 ] } },
{ "type": "Feature", "properties": { "Name": "Comstock Middle School", "description": null, "altitudeMode": "clampToGround", "WEBSITE": "<a target=\"_blank\" href=\"http:\/\/www.dallasisd.org\/comstock\">http:\/\/www.dallasisd.org\/comstock<\/a>", "CITY": "Dallas", "ZIP": "75217", "SCHOOLNAME": "Comstock Middle School", "TEA": "45", "LEVEL": "Middle", "PHONE": "9727941300", "SLN": "45", "FID": "150", "ADDRESS": "7044 Hodde St.", "Field_1": "Comstock Middle School" }, "geometry": { "type": "Point", "coordinates": [ -96.702128577084977, 32.721056206848743 ] } },
{ "type": "Feature", "properties": { "Name": "Greiner Middle School", "description": null, "altitudeMode": "clampToGround", "WEBSITE": "<a target=\"_blank\" href=\"http:\/\/www.dallasisd.org\/greineracademy\">http:\/\/www.dallasisd.org\/greineracademy<\/a>", "CITY": "Dallas", "ZIP": "75208", "SCHOOLNAME": "Greiner Middle School", "TEA": "49", "LEVEL": "Middle", "PHONE": "9729257100", "SLN": "49", "FID": "155", "ADDRESS": "501 S. Edgefield Ave.", "Field_1": "Greiner Middle School" }, "geometry": { "type": "Point", "coordinates": [ -96.844955529023295, 32.74000955916182 ] } },
{ "type": "Feature", "properties": { "Name": "Pershing Elementary School", "description": null, "altitudeMode": "clampToGround", "WEBSITE": "<a target=\"_blank\" href=\"http:\/\/www.dallasisd.org\/pershing\">http:\/\/www.dallasisd.org\/pershing<\/a>", "CITY": "Dallas", "ZIP": "75229", "SCHOOLNAME": "Pershing Elementary School", "TEA": "193", "LEVEL": "Elementary", "PHONE": "9727948600", "SLN": "193", "FID": "170", "ADDRESS": "5715 Meaders Lane", "Field_1": "Pershing Elementary School" }, "geometry": { "type": "Point", "coordinates": [ -96.809855953775141, 32.887602372690417 ] } },
{ "type": "Feature", "properties": { "Name": "Lowe Sr. Elementary School", "description": null, "altitudeMode": "clampToGround", "WEBSITE": "<a target=\"_blank\" href=\"http:\/\/www.dallasisd.org\/lowe\">http:\/\/www.dallasisd.org\/lowe<\/a>", "CITY": "Dallas", "ZIP": "75231", "SCHOOLNAME": "Lowe Sr. Elementary School", "TEA": "176", "LEVEL": "Elementary", "PHONE": "9725021700", "SLN": "176", "FID": "175", "ADDRESS": "7000 Holly Hill Dr.", "Field_1": "Lowe Sr. Elementary School" }, "geometry": { "type": "Point", "coordinates": [ -96.760711479439124, 32.873122787376708 ] } },
{ "type": "Feature", "properties": { "Name": "Macon Elementary School", "description": null, "altitudeMode": "clampToGround", "WEBSITE": "<a target=\"_blank\" href=\"http:\/\/www.dallasisd.org\/macon\">http:\/\/www.dallasisd.org\/macon<\/a>", "CITY": "Dallas", "ZIP": "75217", "SCHOOLNAME": "Macon Elementary School", "TEA": "180", "LEVEL": "Elementary", "PHONE": "9727941500", "SLN": "180", "FID": "185", "ADDRESS": "650 Holcomb Rd.", "Field_1": "Macon Elementary School" }, "geometry": { "type": "Point", "coordinates": [ -96.673564293054469, 32.72252425089583 ] } },
{ "type": "Feature", "properties": { "Name": "Downtown Montessori at Ida B. Wells Academy", "description": null, "altitudeMode": "clampToGround", "WEBSITE": "<a target=\"_blank\" href=\"http:\/\/www.dallasisd.org\/downtownmontessori\">http:\/\/www.dallasisd.org\/downtownmontessori<\/a>", "CITY": "Dallas", "ZIP": "75201", "SCHOOLNAME": "Downtown Montessori at Ida B. Wells Academy", "TEA": "361", "LEVEL": "Choice", "PHONE": "9727492500", "SLN": "361", "FID": "241", "ADDRESS": "1901 Main St.", "Field_1": "Downtown Montessori at Ida B. Wells Academy" }, "geometry": { "type": "Point", "coordinates": [ -96.795502791650804, 32.781771198602158 ] } }
]
}
